property_id,locality_name,postal_code,latitude,longitude,property_type,property_subtype,price,type_of_sale,number_of_rooms,living_area,kitchen_type,fully_equipped_kitchen,furnished,open_fire,terrace,terrace_area,garden,garden_area,surface_of_good,number_of_facades,swimming_pool,state_of_building,main_city,province
11141961,sint-joost-ten-node,1210,,,APARTMENT,FLAT_STUDIO,120000.0,BUY_REGULAR,,33.0,NOT_INSTALLED,1.0,,0,1.0,6.0,,,,,,TO_BE_DONE_UP,sint-joost-ten-node,brussel
11158977,elsene,1050,50.8327332,4.3641305,APARTMENT,APARTMENT,325000.0,BUY_REGULAR,,59.0,USA_SEMI_EQUIPPED,1.0,0.0,0,,,,,,2.0,0.0,AS_NEW,elsene,brussel
11072105,brussel,1040,50.8435094,4.3702633,APARTMENT,APARTMENT,650000.0,BUY_REGULAR,,216.0,INSTALLED,1.0,0.0,0,,,,,,3.0,0.0,AS_NEW,etterbeek,brussel
11129303,de haan,8420,51.2571575,2.9994248,APARTMENT,APARTMENT,119000.0,BUY_REGULAR,1.0,48.0,,,,0,,,,,,,,GOOD,de haan,west-vlaanderen
11155131,vorselaar,2290,51.2026925,4.7683497,APARTMENT,APARTMENT,249000.0,BUY_REGULAR,,75.0,SEMI_EQUIPPED,1.0,,1,1.0,,,,,3.0,,GOOD,vorselaar,antwerpen
11142564,waver,1300,50.7213074,4.6252711,APARTMENT,DUPLEX,135000.0,BUY_REGULAR,,45.0,SEMI_EQUIPPED,1.0,,1,,,,,,3.0,,TO_BE_DONE_UP,wavre,waals-brabant
11093958,nijvel,1400,50.5995225,4.333127,APARTMENT,GROUND_FLOOR,165000.0,BUY_REGULAR,,65.0,HYPER_EQUIPPED,1.0,0.0,0,1.0,10.0,,,,,0.0,GOOD,nivelles,waals-brabant
10985322,brussel,1000,50.8474409,4.3475146,APARTMENT,APARTMENT,415000.0,BUY_REGULAR,,93.0,USA_INSTALLED,1.0,,1,,,1.0,45.0,,,,AS_NEW,brussel,brussel
10978765,knokke,8300,51.3519685,3.2886899,APARTMENT,APARTMENT,319000.0,BUY_REGULAR,5.0,29.0,,,,0,,,,,,2.0,,,knokke-heist,west-vlaanderen
11100255,knokke-zoute,8300,51.3496273,3.2848212,APARTMENT,APARTMENT,675000.0,BUY_REGULAR,9.0,85.0,HYPER_EQUIPPED,1.0,,0,,,,,,2.0,,,knokke-heist,west-vlaanderen
11153019,kessel,2560,51.1403599,4.6312648,APARTMENT,APARTMENT,379000.0,BUY_REGULAR,12.0,170.0,HYPER_EQUIPPED,1.0,,0,,,,,,,,,nijlen,antwerpen
11154493,anderlecht,1070,50.8214707,4.2976678,APARTMENT,APARTMENT,169000.0,BUY_REGULAR,,70.0,NOT_INSTALLED,1.0,,0,1.0,13.0,,,,,,TO_RENOVATE,anderlecht,brussel
10952162,oostende,8400,51.2322806,2.9175081,APARTMENT,APARTMENT,800000.0,BUY_REGULAR,12.0,223.0,,1.0,,0,1.0,,,,,,,TO_RENOVATE,oostende,west-vlaanderen
11156572,gent,9051,51.0274241,3.696983,APARTMENT,APARTMENT,320000.0,BUY_REGULAR,,90.0,USA_HYPER_EQUIPPED,1.0,0.0,0,1.0,11.0,,,,4.0,0.0,AS_NEW,gent,oost-vlaanderen
10545648,knokke-heist,8300,51.350444,3.2842117,APARTMENT,APARTMENT,845000.0,BUY_REGULAR,,74.0,USA_SEMI_EQUIPPED,1.0,1.0,0,1.0,4.0,,,,2.0,0.0,AS_NEW,knokke-heist,west-vlaanderen
10892319,vilvoorde,1800,50.9228315,4.4213012,APARTMENT,APARTMENT,346939.0,BUY_REGULAR,,112.0,HYPER_EQUIPPED,1.0,0.0,0,1.0,8.0,,,,4.0,,AS_NEW,vilvoorde,vlaams-brabant
10975236,tienen,3300,50.8074418,4.9483421,APARTMENT,APARTMENT,199000.0,BUY_REGULAR,,104.0,,1.0,0.0,0,1.0,25.0,,,,3.0,0.0,TO_BE_DONE_UP,tienen,vlaams-brabant
11145362,forêt,4870,,,APARTMENT,APARTMENT,270000.0,BUY_REGULAR,,81.0,INSTALLED,1.0,,1,1.0,8.0,,,,4.0,,,trooz,luik
11151705,hélécine,1357,,,APARTMENT,APARTMENT,206500.0,BUY_REGULAR,,69.0,,,,1,,,,,,2.0,,,hélécine,waals-brabant
10857677,elsene,1050,,,APARTMENT,APARTMENT,850000.0,BUY_REGULAR,,176.0,USA_HYPER_EQUIPPED,1.0,0.0,0,1.0,12.0,,,,2.0,0.0,AS_NEW,elsene,brussel
11038477,evere,1140,50.8558693,4.4184622,APARTMENT,PENTHOUSE,462000.0,BUY_REGULAR,,124.0,USA_HYPER_EQUIPPED,1.0,0.0,0,1.0,17.0,,,,2.0,0.0,AS_NEW,evere,brussel
10732841,elsene,1050,50.8157264,4.383899,APARTMENT,APARTMENT,349000.0,BUY_REGULAR,,80.0,,1.0,0.0,0,1.0,,,,,3.0,0.0,TO_BE_DONE_UP,elsene,brussel
10880066,harelbeke,8530,50.8595894,3.3164257,APARTMENT,APARTMENT,355000.0,BUY_REGULAR,,218.0,INSTALLED,1.0,,0,1.0,50.0,,,,,0.0,AS_NEW,harelbeke,west-vlaanderen
10900623,blankenberge,8370,51.3164459,3.13189,APARTMENT,FLAT_STUDIO,139000.0,BUY_REGULAR,1.0,37.0,,,,0,,,,,,,,GOOD,blankenberge,west-vlaanderen
11020535,gavere,9890,50.9299385,3.6374336,APARTMENT,APARTMENT,299000.0,BUY_REGULAR,10.0,90.0,,,,0,1.0,,,,,2.0,,,gavere,oost-vlaanderen
11153163,anderlecht,1070,,,APARTMENT,APARTMENT,210000.0,BUY_REGULAR,,75.0,SEMI_EQUIPPED,1.0,0.0,0,1.0,9.0,,,,2.0,,AS_NEW,anderlecht,brussel
10951739,berchem,2600,51.1828858,4.4380297,APARTMENT,APARTMENT,319000.0,BUY_REGULAR,,140.0,INSTALLED,1.0,,1,1.0,22.0,,,,,,,antwerpen,antwerpen
11076188,sint-jans-molenbeek,1080,50.8590413,4.3091157,APARTMENT,GROUND_FLOOR,249000.0,BUY_REGULAR,,90.0,USA_HYPER_EQUIPPED,1.0,0.0,0,1.0,14.0,,,,2.0,,AS_NEW,sint-jans-molenbeek,brussel
11052730,waver,1300,50.7138241,4.6119057,APARTMENT,APARTMENT,160000.0,BUY_REGULAR,,69.0,SEMI_EQUIPPED,1.0,0.0,0,,,,,,2.0,0.0,TO_RENOVATE,wavre,waals-brabant
11138973,halen,3545,50.9495581,5.1106217,APARTMENT,APARTMENT,282200.0,BUY_REGULAR,5.0,93.0,HYPER_EQUIPPED,1.0,,0,,,,,,,,GOOD,halen,limburg
9985452,knokke-heist,8300,51.3460101,3.268392,APARTMENT,APARTMENT,1365000.0,BUY_REGULAR,16.0,157.0,INSTALLED,1.0,,0,1.0,,,,,,,,knokke-heist,west-vlaanderen
11083322,fosses-la-ville,5070,50.3951938,4.6972814,APARTMENT,APARTMENT,197000.0,BUY_REGULAR,,69.0,USA_INSTALLED,1.0,,0,1.0,9.0,,,,3.0,,JUST_RENOVATED,fosses-la-ville,namen
11102172,overijse,3090,50.7719515,4.5404976,APARTMENT,DUPLEX,450000.0,BUY_REGULAR,,146.0,INSTALLED,1.0,,1,1.0,22.0,,,,3.0,,AS_NEW,overijse,vlaams-brabant
11014595,brussel,1000,50.799716,4.3929406,APARTMENT,GROUND_FLOOR,598000.0,BUY_REGULAR,,149.0,USA_HYPER_EQUIPPED,1.0,1.0,0,1.0,15.0,,,,2.0,,AS_NEW,brussel,brussel
10725918,antwerpen,2060,51.2301643,4.4170893,APARTMENT,FLAT_STUDIO,145000.0,BUY_REGULAR,,31.0,,,,0,1.0,19.0,,,,4.0,,AS_NEW,antwerpen,antwerpen
11016926,lier,2500,51.1426546,4.5509929,APARTMENT,APARTMENT,324520.0,BUY_REGULAR,,94.0,INSTALLED,1.0,,1,1.0,21.0,,,,2.0,,,lier,antwerpen
11149427,knokke-heist,8300,51.3462716,3.2706348,APARTMENT,APARTMENT,1345000.0,BUY_REGULAR,1.0,121.0,,,,0,1.0,,,,,,,GOOD,knokke-heist,west-vlaanderen
11128321,gent,9000,51.0499226,3.7238132,APARTMENT,APARTMENT,639669.0,BUY_REGULAR,,77.0,USA_HYPER_EQUIPPED,1.0,0.0,0,1.0,9.0,,,,2.0,0.0,AS_NEW,gent,oost-vlaanderen
11154902,turnhout,2300,51.3377191,4.9344756,APARTMENT,GROUND_FLOOR,288900.0,BUY_REGULAR,,86.0,INSTALLED,1.0,,1,1.0,12.0,,,,2.0,,,turnhout,antwerpen
11099164,varsenare,8490,51.1867411,3.1459096,APARTMENT,APARTMENT,265000.0,BUY_REGULAR,8.0,114.0,HYPER_EQUIPPED,1.0,,0,,,,,,,,AS_NEW,jabbeke,west-vlaanderen
11153195,antwerpen,2020,51.1821925,4.3915097,APARTMENT,APARTMENT,219000.0,BUY_REGULAR,,89.0,USA_HYPER_EQUIPPED,1.0,,0,1.0,5.0,,,,,,,antwerpen,antwerpen
10897491,bierbeek,3360,50.8552211,4.776519,APARTMENT,APARTMENT,422440.0,BUY_REGULAR,,102.0,HYPER_EQUIPPED,1.0,0.0,0,1.0,12.0,,,,4.0,1.0,AS_NEW,bierbeek,vlaams-brabant
11122796,elsene,1050,,,APARTMENT,APARTMENT,260000.0,BUY_REGULAR,,63.0,USA_HYPER_EQUIPPED,1.0,0.0,0,,,,,,2.0,0.0,AS_NEW,elsene,brussel
11109630,verviers petit-rechain,4800,50.5985488,5.8438436,APARTMENT,APARTMENT,125000.0,BUY_REGULAR,,58.0,INSTALLED,1.0,0.0,0,1.0,16.0,,,,2.0,0.0,GOOD,verviers,luik
11095764,gent,9000,51.0294641,3.7646576,APARTMENT,PENTHOUSE,799000.0,BUY_REGULAR,11.0,130.0,HYPER_EQUIPPED,1.0,,0,1.0,11.0,,,,,,GOOD,gent,oost-vlaanderen
11041554,knokke-heist,8301,51.3399705,3.2304659,APARTMENT,APARTMENT,298000.0,BUY_REGULAR,1.0,44.0,,,,0,,,,,,,,GOOD,knokke-heist,west-vlaanderen
8948318,knokke-heist,8300,51.3435412,3.2836473,APARTMENT,SERVICE_FLAT,458000.0,BUY_REGULAR,,56.0,INSTALLED,1.0,,0,1.0,13.0,,,,3.0,,AS_NEW,knokke-heist,west-vlaanderen
11128562,merchtem,1785,50.9527688,4.2301336,APARTMENT,APARTMENT,265000.0,BUY_REGULAR,,80.0,HYPER_EQUIPPED,1.0,0.0,0,1.0,,,,,3.0,0.0,AS_NEW,merchtem,vlaams-brabant
10920371,antwerpen,2018,51.1978271,4.4044644,APARTMENT,APARTMENT,475000.0,BUY_REGULAR,,101.0,USA_HYPER_EQUIPPED,1.0,,0,1.0,,,,,,,AS_NEW,antwerpen,antwerpen
11157329,machelen diegem,1831,50.8952479,4.4363849,APARTMENT,APARTMENT,289000.0,BUY_REGULAR,,90.0,HYPER_EQUIPPED,1.0,0.0,0,1.0,8.0,,,,2.0,0.0,AS_NEW,machelen,vlaams-brabant
10734920,mechelen,2800,51.0030066,4.4733835,APARTMENT,PENTHOUSE,674500.0,BUY_REGULAR,,174.0,USA_HYPER_EQUIPPED,1.0,0.0,0,1.0,22.0,,,,,,AS_NEW,mechelen,antwerpen
10823887,zellik,1731,50.8859188,4.2727111,APARTMENT,APARTMENT,224750.0,BUY_REGULAR,,69.0,INSTALLED,1.0,0.0,0,1.0,7.0,,,,2.0,,GOOD,asse,vlaams-brabant
11140559,vorst,1190,50.8075484,4.3258636,APARTMENT,APARTMENT,270000.0,BUY_REGULAR,,92.0,INSTALLED,1.0,,0,1.0,4.0,,,,,0.0,AS_NEW,vorst,brussel
10675306,liège chênée,4032,50.6147551,5.6103796,APARTMENT,APARTMENT,180000.0,BUY_REGULAR,,110.0,INSTALLED,1.0,0.0,0,1.0,6.0,,,,2.0,0.0,GOOD,liège,luik
11160908,leuven,3000,50.873571,4.7093409,APARTMENT,FLAT_STUDIO,189000.0,BUY_REGULAR,,29.0,,,,1,,,,,,2.0,,TO_BE_DONE_UP,leuven,vlaams-brabant
11029197,gent,9000,51.0430929,3.724988,APARTMENT,APARTMENT,529629.0,BUY_REGULAR,,85.0,HYPER_EQUIPPED,1.0,0.0,0,1.0,,,,,2.0,,AS_NEW,gent,oost-vlaanderen
11103591,sint-jans-molenbeek,1080,,,APARTMENT,APARTMENT,195000.0,BUY_REGULAR,,100.0,INSTALLED,1.0,,0,1.0,,,,,2.0,,TO_BE_DONE_UP,sint-jans-molenbeek,brussel
11147421,montegnée,4420,50.6419582,5.5208475,APARTMENT,APARTMENT,162138.0,BUY_REGULAR,,60.0,INSTALLED,1.0,,1,,,,,,2.0,,AS_NEW,saint-nicolas,luik
10890097,knokke-heist,8300,51.3496524,3.2898276,APARTMENT,APARTMENT,639000.0,BUY_REGULAR,1.0,94.0,,,,0,,,,,,,,GOOD,knokke-heist,west-vlaanderen
10984827,elsene,1050,50.8206767,4.3667163,APARTMENT,APARTMENT,732000.0,BUY_REGULAR,5.0,120.0,,,,0,1.0,19.0,,,,,,,elsene,brussel
11113257,gavere,9890,50.930874,3.6587791,APARTMENT,SERVICE_FLAT,185000.0,BUY_REGULAR,1.0,70.0,,1.0,,0,,,,,,2.0,,GOOD,gavere,oost-vlaanderen
10777288,wezembeek-oppem,1970,50.8333181,4.498388,APARTMENT,SERVICE_FLAT,159000.0,BUY_REGULAR,,60.0,USA_INSTALLED,1.0,,0,1.0,,,,,2.0,,AS_NEW,wezembeek-oppem,vlaams-brabant
11162182,tubeke,1480,,,APARTMENT,DUPLEX,225000.0,BUY_REGULAR,,105.0,,,,0,,,,,,2.0,0.0,GOOD,tubize,waals-brabant
11156437,schaarbeek,1030,,,APARTMENT,APARTMENT,420000.0,BUY_REGULAR,,107.0,HYPER_EQUIPPED,1.0,0.0,0,1.0,12.0,,,,2.0,0.0,JUST_RENOVATED,schaarbeek,brussel
11011915,knokke-heist,8300,51.3394009,3.2859442,APARTMENT,APARTMENT,1195000.0,BUY_REGULAR,15.0,140.0,HYPER_EQUIPPED,1.0,,0,,,,,,2.0,,AS_NEW,knokke-heist,west-vlaanderen
11000331,schaarbeek,1030,,,APARTMENT,APARTMENT,190000.0,BUY_REGULAR,,72.0,INSTALLED,1.0,0.0,0,,,,,,2.0,0.0,GOOD,schaarbeek,brussel
11043486,ruisbroek,2870,51.0833344,4.3242777,APARTMENT,APARTMENT,149000.0,BUY_REGULAR,,85.0,SEMI_EQUIPPED,1.0,,1,1.0,18.0,1.0,104.0,,2.0,,GOOD,puurs-sint-amands,antwerpen
11145292,ville de bruxelles,1000,50.8476358,4.3529321,APARTMENT,APARTMENT,340000.0,BUY_REGULAR,,87.0,INSTALLED,1.0,,0,,,,,,,0.0,AS_NEW,brussel,brussel
10610625,ellezelles,7890,50.7352711,3.6819951,APARTMENT,APARTMENT,299000.0,BUY_REGULAR,9.0,95.0,,1.0,,0,1.0,12.0,1.0,3000.0,,4.0,,GOOD,ellezelles,henegouwen
11161324,mechelen,2800,51.0240088,4.468717,APARTMENT,APARTMENT,392689.0,BUY_REGULAR,5.0,95.0,,,,0,1.0,11.0,,,,,,,mechelen,antwerpen
10555484,liège 2,4020,50.6363136,5.5960861,APARTMENT,APARTMENT,185000.0,BUY_REGULAR,,74.0,INSTALLED,1.0,0.0,0,,,,,,3.0,,GOOD,liège,luik
11092332,hasselt,3500,50.9284488,5.3465261,APARTMENT,FLAT_STUDIO,99000.0,BUY_REGULAR,,25.0,,,0.0,0,,,,,,2.0,0.0,,hasselt,limburg
11140534,schaarbeek,1030,50.8763925,4.3801487,APARTMENT,DUPLEX,415000.0,BUY_REGULAR,,147.0,NOT_INSTALLED,1.0,0.0,0,,,1.0,22.0,,4.0,0.0,TO_RENOVATE,schaarbeek,brussel
11155560,antwerpen,2018,51.1995389,4.4034994,APARTMENT,APARTMENT,289000.0,BUY_REGULAR,,72.0,SEMI_EQUIPPED,1.0,,1,,,,,,,,GOOD,antwerpen,antwerpen
11143943,brussel,1020,50.8800877,4.3491167,APARTMENT,APARTMENT,139000.0,BUY_REGULAR,,50.0,INSTALLED,1.0,0.0,0,,,,,,2.0,0.0,TO_BE_DONE_UP,brussel,brussel
11150235,vilvoorde,1800,50.9280834,4.4277078,APARTMENT,APARTMENT,247500.0,BUY_REGULAR,,75.0,INSTALLED,1.0,0.0,0,1.0,6.0,,,,4.0,0.0,AS_NEW,vilvoorde,vlaams-brabant
11154439,mortsel,2640,51.1653708,4.449512,APARTMENT,GROUND_FLOOR,299000.0,BUY_REGULAR,,70.0,INSTALLED,1.0,,1,,,1.0,109.0,,2.0,,JUST_RENOVATED,mortsel,antwerpen
11133792,oudergem,1160,50.8208162,4.4297464,APARTMENT,APARTMENT,375000.0,BUY_REGULAR,,110.0,,1.0,0.0,0,1.0,9.0,,,,3.0,0.0,GOOD,oudergem,brussel
11150712,knokke-heist,8300,51.3416429,3.2446897,APARTMENT,APARTMENT,1650000.0,BUY_REGULAR,18.0,135.0,HYPER_EQUIPPED,1.0,,0,,,,,,,,GOOD,knokke-heist,west-vlaanderen
11121834,nieuwpoort,8620,51.1483879,2.7166026,APARTMENT,APARTMENT,295000.0,BUY_REGULAR,,70.0,SEMI_EQUIPPED,1.0,,1,1.0,,,,,2.0,,TO_BE_DONE_UP,nieuwpoort,west-vlaanderen
11154673,veldegem,8210,51.1046542,3.1594658,APARTMENT,GROUND_FLOOR,249000.0,BUY_REGULAR,1.0,102.0,,,,0,1.0,,,,,2.0,,GOOD,zedelgem,west-vlaanderen
11151165,ukkel,1180,,,APARTMENT,DUPLEX,599000.0,BUY_REGULAR,,136.0,USA_HYPER_EQUIPPED,1.0,0.0,0,1.0,15.0,1.0,120.0,,,,GOOD,ukkel,brussel
11149591,nandrin,4550,50.5014238,5.4223718,APARTMENT,APARTMENT,169000.0,BUY_REGULAR,,96.0,SEMI_EQUIPPED,1.0,,1,1.0,12.0,1.0,220.0,,,,GOOD,nandrin,luik
11016580,brussel,1020,50.8739814,4.3514701,APARTMENT,APARTMENT,289000.0,BUY_REGULAR,,93.0,USA_SEMI_EQUIPPED,1.0,0.0,0,1.0,6.0,,,,2.0,0.0,AS_NEW,brussel,brussel
11158646,mechelen,2800,51.0240088,4.468717,APARTMENT,APARTMENT,461524.0,BUY_REGULAR,5.0,103.0,,,,0,1.0,13.0,,,,,,,mechelen,antwerpen
11091714,sint-jans-molenbeek,1080,,,APARTMENT,DUPLEX,465000.0,BUY_REGULAR,,206.0,USA_HYPER_EQUIPPED,1.0,0.0,0,1.0,12.0,,,,2.0,0.0,AS_NEW,sint-jans-molenbeek,brussel
10950794,zeebrugge,8380,51.3315241,3.2035032,APARTMENT,APARTMENT,399000.0,BUY_REGULAR,1.0,120.0,,,,0,,,1.0,22.0,,,,GOOD,brugge,west-vlaanderen
11143449,geraardsbergen,9500,50.7692382,3.8775412,APARTMENT,APARTMENT,195000.0,BUY_REGULAR,,50.0,,,,0,,,,,,2.0,,GOOD,geraardsbergen,oost-vlaanderen
11144534,leopoldsburg,3971,51.1092226,5.2295277,APARTMENT,APARTMENT,199000.0,BUY_REGULAR,1.0,110.0,,1.0,,0,1.0,17.0,,,,,,GOOD,leopoldsburg,limburg
11151900,schaarbeek,1030,50.8601766,4.3750571,APARTMENT,DUPLEX,375000.0,BUY_REGULAR,4.0,120.0,,1.0,,0,1.0,6.0,,,,,,GOOD,schaarbeek,brussel
11161798,dendermonde,9200,51.0219963,4.114072,APARTMENT,APARTMENT,220000.0,BUY_REGULAR,,67.0,,1.0,0.0,0,,,,,,3.0,0.0,,dendermonde,oost-vlaanderen
10880166,st-jans-molenbeek,1080,50.8530853,4.3009629,APARTMENT,APARTMENT,229000.0,BUY_REGULAR,,95.0,INSTALLED,1.0,,0,1.0,,,,,,,GOOD,sint-jans-molenbeek,brussel
11097428,oostende,8400,51.2168949,2.8847985,APARTMENT,APARTMENT,220000.0,PUBLIC_SALE,,60.0,INSTALLED,1.0,,0,1.0,,,,,2.0,,AS_NEW,oostende,west-vlaanderen
11135012,gent,9000,51.0477043,3.7104242,APARTMENT,APARTMENT,295000.0,BUY_REGULAR,,90.0,SEMI_EQUIPPED,1.0,,0,1.0,,,,,,,GOOD,gent,oost-vlaanderen
11147890,jabbeke,8490,51.1831069,3.1400117,APARTMENT,APARTMENT,599000.0,BUY_REGULAR,3.0,120.0,,1.0,,1,1.0,,,,,,,GOOD,jabbeke,west-vlaanderen
11103404,schaarbeek,1030,,,APARTMENT,APARTMENT,310000.0,BUY_REGULAR,,118.0,SEMI_EQUIPPED,1.0,0.0,0,1.0,7.0,,,,2.0,0.0,TO_RENOVATE,schaarbeek,brussel
11087397,ukkel,1180,50.8127314,4.3539477,APARTMENT,GROUND_FLOOR,390000.0,BUY_REGULAR,,98.0,HYPER_EQUIPPED,1.0,0.0,0,1.0,30.0,,,,2.0,0.0,AS_NEW,ukkel,brussel
11093907,brussel,1000,,,APARTMENT,DUPLEX,1080000.0,BUY_REGULAR,4.0,229.0,USA_HYPER_EQUIPPED,1.0,,0,1.0,,,,,4.0,1.0,AS_NEW,brussel,brussel
11075773,brussel,1000,50.863423,4.3547239,APARTMENT,APARTMENT,185000.0,BUY_REGULAR,2.0,38.0,,,1.0,0,,,,,,,,GOOD,brussel,brussel
11008988,knokke-zoute,8300,,,APARTMENT,APARTMENT,2585000.0,BUY_REGULAR,,130.0,,,0.0,0,1.0,,,,,2.0,0.0,AS_NEW,knokke-heist,west-vlaanderen
10943929,oostende,8400,51.2208277,2.9019268,APARTMENT,APARTMENT,274000.0,BUY_REGULAR,,90.0,,,0.0,0,1.0,,,,,2.0,0.0,,oostende,west-vlaanderen
11053072,gent,9000,51.0509732,3.7012871,APARTMENT,SERVICE_FLAT,349500.0,BUY_REGULAR,8.0,81.0,INSTALLED,1.0,,0,1.0,10.0,,,,,,,gent,oost-vlaanderen
11148946,sint-joost-ten-node,1210,50.8489056,4.3699398,APARTMENT,APARTMENT,349000.0,BUY_REGULAR,,110.0,USA_HYPER_EQUIPPED,1.0,0.0,0,,,,,,2.0,,,sint-joost-ten-node,brussel
10910999,oostende,8400,51.2280326,2.9203142,APARTMENT,APARTMENT,870000.0,BUY_REGULAR,13.0,160.0,HYPER_EQUIPPED,1.0,,0,1.0,8.0,,,,,,GOOD,oostende,west-vlaanderen
11162293,ukkel,1180,50.7839935,4.378974,APARTMENT,DUPLEX,499000.0,BUY_REGULAR,,178.0,NOT_INSTALLED,1.0,0.0,0,1.0,4.0,,,,2.0,0.0,TO_RENOVATE,ukkel,brussel
11148029,tongeren,3700,50.7842388,5.4701038,APARTMENT,APARTMENT,189000.0,BUY_REGULAR,,98.0,SEMI_EQUIPPED,1.0,,1,1.0,3.0,,,,,,TO_BE_DONE_UP,tongeren,limburg
11041454,melle,9090,51.0191237,3.7698478,APARTMENT,APARTMENT,212500.0,BUY_REGULAR,2.0,60.0,,1.0,,0,1.0,4.0,,,,,,GOOD,melle,oost-vlaanderen
11148782,schoten,2900,51.2467552,4.497924,APARTMENT,DUPLEX,320000.0,BUY_REGULAR,,108.0,INSTALLED,1.0,,1,1.0,30.0,,,,2.0,,GOOD,schoten,antwerpen
11130013,knokke,8300,51.3385642,3.2777801,APARTMENT,APARTMENT,660000.0,BUY_REGULAR,13.0,83.0,HYPER_EQUIPPED,1.0,,0,1.0,16.0,,,,2.0,,GOOD,knokke-heist,west-vlaanderen
11153085,putte,2580,51.0594984,4.6273196,APARTMENT,APARTMENT,342760.0,BUY_REGULAR,10.0,91.0,HYPER_EQUIPPED,1.0,,0,1.0,,,,,,,,putte,antwerpen
10932799,leuven,3000,50.8861558,4.6994014,APARTMENT,DUPLEX,759527.0,BUY_REGULAR,,190.0,HYPER_EQUIPPED,1.0,0.0,0,1.0,15.0,1.0,,,3.0,,AS_NEW,leuven,vlaams-brabant
10267881,vilvoorde,1800,50.9258341,4.4423874,APARTMENT,APARTMENT,279500.0,BUY_REGULAR,,104.0,,,0.0,0,1.0,8.0,,,,2.0,0.0,GOOD,vilvoorde,vlaams-brabant
11149122,antwerpen berchem,2600,51.1850075,4.4430934,APARTMENT,APARTMENT,225000.0,BUY_REGULAR,,63.0,HYPER_EQUIPPED,1.0,0.0,0,1.0,17.0,,,,2.0,0.0,AS_NEW,antwerpen,antwerpen
10918665,gent,9000,51.0652335,3.690419,APARTMENT,PENTHOUSE,425000.0,BUY_REGULAR,,118.0,HYPER_EQUIPPED,1.0,0.0,0,1.0,11.0,,,,,0.0,AS_NEW,gent,oost-vlaanderen
11157252,bonheiden,2820,51.0366155,4.5537964,APARTMENT,APARTMENT,325000.0,BUY_REGULAR,,76.0,INSTALLED,1.0,,0,1.0,,,,,3.0,,GOOD,bonheiden,antwerpen
11141769,genk,3600,51.0121937,5.4905408,APARTMENT,APARTMENT,265000.0,BUY_REGULAR,,109.0,INSTALLED,1.0,,0,1.0,6.0,,,,,0.0,AS_NEW,genk,limburg
11115297,sint-jans-molenbeek,1080,50.8491067,4.3032569,APARTMENT,APARTMENT,180000.0,BUY_REGULAR,,80.0,SEMI_EQUIPPED,1.0,0.0,0,1.0,7.0,,,,2.0,0.0,GOOD,sint-jans-molenbeek,brussel
11144165,remicourt,4350,50.6831874,5.3224979,APARTMENT,PENTHOUSE,315000.0,BUY_REGULAR,,139.0,USA_HYPER_EQUIPPED,1.0,0.0,0,1.0,19.0,,,,3.0,0.0,AS_NEW,remicourt,luik
11154974,bruxelles  8,1080,,,APARTMENT,APARTMENT,199000.0,BUY_REGULAR,,90.0,INSTALLED,1.0,0.0,0,1.0,10.0,,,,2.0,,,sint-jans-molenbeek,brussel
11060608,gent,9000,51.0554828,3.6924317,APARTMENT,APARTMENT,215000.0,BUY_REGULAR,,55.0,SEMI_EQUIPPED,1.0,,0,1.0,,,,,2.0,,,gent,oost-vlaanderen
11136118,antwerpen,2060,51.2183202,4.4254668,APARTMENT,APARTMENT,245000.0,BUY_REGULAR,1.0,100.0,,,,0,,,,,,3.0,,GOOD,antwerpen,antwerpen
11118233,vilvoorde,1800,50.9184451,4.4228382,APARTMENT,LOFT,555000.0,BUY_REGULAR,,215.0,INSTALLED,1.0,0.0,0,1.0,,,,,2.0,,AS_NEW,vilvoorde,vlaams-brabant
11000833,elsene,1050,50.8309623,4.3762553,APARTMENT,APARTMENT,415000.0,BUY_REGULAR,,80.0,USA_INSTALLED,1.0,0.0,0,1.0,,,,,3.0,,AS_NEW,elsene,brussel
11159666,oudergem,1160,,,APARTMENT,APARTMENT,249000.0,BUY_REGULAR,,77.0,,1.0,0.0,0,1.0,17.0,,,,,0.0,TO_BE_DONE_UP,oudergem,brussel
10969756,nieuwenrode,1880,50.9796032,4.3505284,APARTMENT,APARTMENT,199000.0,BUY_REGULAR,,65.0,,1.0,0.0,0,1.0,14.0,,,,2.0,0.0,,kapelle-op-den-bos,vlaams-brabant
10766523,izegem,8870,50.9112168,3.2148666,APARTMENT,APARTMENT,280000.0,BUY_REGULAR,4.0,130.0,,,,0,,,,,,,,GOOD,izegem,west-vlaanderen
11162806,evere,1140,50.873875,4.4038291,APARTMENT,APARTMENT,165000.0,BUY_REGULAR,,67.0,SEMI_EQUIPPED,1.0,0.0,0,1.0,7.0,,,,,,TO_BE_DONE_UP,evere,brussel
11038998,liberchies,6238,,,APARTMENT,APARTMENT,285000.0,BUY_REGULAR,,100.0,USA_HYPER_EQUIPPED,1.0,0.0,0,1.0,,,,,2.0,0.0,AS_NEW,pont-à-celles,henegouwen
11080168,erpe-mere,9420,50.9168569,3.9296648,APARTMENT,DUPLEX,320000.0,BUY_REGULAR,,142.0,USA_HYPER_EQUIPPED,1.0,0.0,0,1.0,6.0,,,,2.0,0.0,AS_NEW,erpe-mere,oost-vlaanderen
11081715,oostende,8400,51.2228827,2.9092352,APARTMENT,APARTMENT,330000.0,BUY_REGULAR,,84.0,INSTALLED,1.0,0.0,0,,,,,,2.0,0.0,AS_NEW,oostende,west-vlaanderen
11148806,elsene,1050,50.8352339,4.3590931,APARTMENT,APARTMENT,1495000.0,BUY_REGULAR,4.0,174.0,USA_HYPER_EQUIPPED,1.0,,0,1.0,40.0,,,,2.0,0.0,AS_NEW,elsene,brussel
11161944,knokke-heist,8300,,,APARTMENT,DUPLEX,995000.0,BUY_REGULAR,4.0,110.0,HYPER_EQUIPPED,1.0,,0,1.0,,,,,2.0,0.0,AS_NEW,knokke-heist,west-vlaanderen
11091555,sint-lambrechts-woluwe,1200,50.8472146,4.4478882,APARTMENT,PENTHOUSE,425000.0,BUY_REGULAR,,145.0,INSTALLED,1.0,0.0,0,1.0,3.0,,,,3.0,0.0,GOOD,sint-lambrechts-woluwe,brussel
11157645,sint-agatha-berchem,1082,,,APARTMENT,DUPLEX,199000.0,BUY_REGULAR,,67.0,USA_HYPER_EQUIPPED,1.0,,0,,,,,,2.0,0.0,AS_NEW,sint-agatha-berchem,brussel
11154037,temse,9140,51.1599292,4.2060846,APARTMENT,APARTMENT,389000.0,BUY_REGULAR,1.0,121.0,,,,0,1.0,27.0,,,,,,GOOD,temse,oost-vlaanderen
11149064,gent wondelgem,9032,51.0955242,3.7150844,APARTMENT,PENTHOUSE,349000.0,BUY_REGULAR,,92.0,INSTALLED,1.0,0.0,0,1.0,29.0,,,,4.0,0.0,AS_NEW,gent,oost-vlaanderen
11129514,knokke,8300,51.3385872,3.2878624,APARTMENT,APARTMENT,295000.0,BUY_REGULAR,5.0,70.0,INSTALLED,1.0,,0,,,,,,,,TO_BE_DONE_UP,knokke-heist,west-vlaanderen
10943087,wellin,6920,50.081643,5.1145506,APARTMENT,GROUND_FLOOR,245000.0,BUY_REGULAR,,124.0,INSTALLED,1.0,0.0,0,1.0,50.0,,,,,0.0,AS_NEW,wellin,luxemburg
11121206,deurne,2100,51.2293934,4.482167,APARTMENT,APARTMENT,199000.0,BUY_REGULAR,,84.0,NOT_INSTALLED,1.0,,1,1.0,12.0,,,,,,,antwerpen,antwerpen
10922044,leuven,3000,50.8558443,4.7765579,APARTMENT,APARTMENT,422180.0,BUY_REGULAR,,80.0,HYPER_EQUIPPED,1.0,0.0,0,1.0,6.0,,,,4.0,1.0,AS_NEW,leuven,vlaams-brabant
10980284,sint-lambrechts-woluwe,1200,50.8413586,4.4144935,APARTMENT,APARTMENT,399000.0,BUY_REGULAR,,129.0,,1.0,0.0,0,1.0,3.0,,,,2.0,0.0,GOOD,sint-lambrechts-woluwe,brussel
11159147,lille,2275,51.2683386,4.8672404,APARTMENT,APARTMENT,364000.0,BUY_REGULAR,,180.0,USA_HYPER_EQUIPPED,1.0,0.0,0,1.0,12.0,,,,3.0,,AS_NEW,lille,antwerpen
11077395,antwerpen,2020,51.1907603,4.3924447,APARTMENT,APARTMENT,420000.0,BUY_REGULAR,,129.0,,,,0,1.0,,1.0,100.0,,2.0,,GOOD,antwerpen,antwerpen
11129479,westende,8434,51.1676956,2.7775451,APARTMENT,DUPLEX,134000.0,BUY_REGULAR,,44.0,,,0.0,0,1.0,,,,,2.0,0.0,,middelkerke,west-vlaanderen
11055940,tienen,3300,50.8290841,4.9908628,APARTMENT,GROUND_FLOOR,279000.0,BUY_REGULAR,1.0,116.0,INSTALLED,1.0,,0,1.0,35.0,1.0,70.0,,3.0,0.0,GOOD,tienen,vlaams-brabant
11156046,antwerpen,2000,51.2260799,4.4153595,APARTMENT,APARTMENT,325000.0,BUY_REGULAR,,106.0,INSTALLED,1.0,,1,,,,,,2.0,,JUST_RENOVATED,antwerpen,antwerpen
10981917,brussel,1130,50.8947306,4.4335812,APARTMENT,APARTMENT,262609.0,BUY_REGULAR,,115.0,HYPER_EQUIPPED,1.0,0.0,0,1.0,7.0,,,,3.0,0.0,AS_NEW,brussel,brussel
10916551,mechelen,2800,51.0207466,4.4819647,APARTMENT,APARTMENT,747900.0,BUY_REGULAR,,146.0,HYPER_EQUIPPED,1.0,0.0,0,1.0,16.0,,,,3.0,0.0,,mechelen,antwerpen
10678721,awans,4340,50.6882014,5.4510698,APARTMENT,APARTMENT,275000.0,BUY_REGULAR,,88.0,NOT_INSTALLED,1.0,,0,1.0,15.0,,,,4.0,,,awans,luik
10732506,blankenberge,8370,51.3125689,3.1256715,APARTMENT,APARTMENT,185000.0,BUY_REGULAR,6.0,60.0,HYPER_EQUIPPED,1.0,,0,,,,,,,,AS_NEW,blankenberge,west-vlaanderen
11130949,knokke-heist,8300,51.3550071,3.2984949,APARTMENT,APARTMENT,2100000.0,BUY_REGULAR,4.0,126.0,USA_HYPER_EQUIPPED,1.0,,0,1.0,,,,,2.0,0.0,AS_NEW,knokke-heist,west-vlaanderen
11009340,hoboken,2660,51.161512,4.3559503,APARTMENT,APARTMENT,229000.0,BUY_REGULAR,,89.0,USA_HYPER_EQUIPPED,1.0,0.0,0,1.0,4.0,,,,2.0,,GOOD,antwerpen,antwerpen
11131097,etterbeek,1040,50.8298136,4.3835606,APARTMENT,PENTHOUSE,450000.0,BUY_REGULAR,,99.0,USA_HYPER_EQUIPPED,1.0,,0,1.0,7.0,,,,2.0,0.0,AS_NEW,etterbeek,brussel
11029187,mechelen,2800,51.0326616,4.4860321,APARTMENT,APARTMENT,245000.0,BUY_REGULAR,,120.0,SEMI_EQUIPPED,1.0,0.0,0,1.0,8.0,,,,2.0,0.0,GOOD,mechelen,antwerpen
11152755,knokke-zoute,8300,51.3542833,3.293466,APARTMENT,APARTMENT,920000.0,BUY_REGULAR,3.0,64.0,INSTALLED,1.0,,0,,,,,,,,,knokke-heist,west-vlaanderen
10886068,knokke-zoute,8300,51.3551061,3.2987017,APARTMENT,APARTMENT,1175000.0,BUY_REGULAR,9.0,72.0,,,,0,1.0,,,,,,,,knokke-heist,west-vlaanderen
11074065,oostende,8400,,,APARTMENT,APARTMENT,269900.0,BUY_REGULAR,12.0,104.0,,,,0,,,,,,,,AS_NEW,oostende,west-vlaanderen
10932695,knokke-heist,8300,51.3556883,3.3032166,APARTMENT,APARTMENT,630000.0,BUY_REGULAR,1.0,58.0,,,,0,1.0,,,,,,,GOOD,knokke-heist,west-vlaanderen
11101138,herstal,4040,50.6658918,5.630596,APARTMENT,APARTMENT,165000.0,BUY_REGULAR,,90.0,NOT_INSTALLED,1.0,0.0,0,1.0,,,,,2.0,0.0,GOOD,herstal,luik
11059806,hasselt,3500,50.9356239,5.3353309,APARTMENT,APARTMENT,449000.0,BUY_REGULAR,,107.0,HYPER_EQUIPPED,1.0,0.0,0,1.0,,,,,2.0,0.0,,hasselt,limburg
11114252,knokke,8300,,,APARTMENT,DUPLEX,895000.0,BUY_REGULAR,,125.0,HYPER_EQUIPPED,1.0,0.0,0,1.0,10.0,,,,2.0,,AS_NEW,knokke-heist,west-vlaanderen
11093866,kortessem,3720,50.8575147,5.3923291,APARTMENT,PENTHOUSE,365000.0,BUY_REGULAR,,114.0,,,0.0,0,1.0,,,,,2.0,0.0,,kortessem,limburg
10956272,wanfercée-baulet,6224,50.4709376,4.5900185,APARTMENT,APARTMENT,294000.0,BUY_REGULAR,,113.0,HYPER_EQUIPPED,1.0,,1,1.0,7.0,,,,2.0,,,fleurus,henegouwen
11120226,brasschaat (brasschaat),2930,51.2859852,4.4849203,APARTMENT,APARTMENT,295000.0,BUY_REGULAR,,68.0,,,0.0,0,1.0,,,,,2.0,0.0,GOOD,brasschaat,antwerpen
11116035,gent,9000,51.0349006,3.7058647,APARTMENT,APARTMENT,395000.0,BUY_REGULAR,,104.0,INSTALLED,1.0,,0,1.0,14.0,,,,2.0,,GOOD,gent,oost-vlaanderen
11161922,sint-pieters-leeuw,1600,50.8065114,4.2824983,APARTMENT,APARTMENT,269000.0,BUY_REGULAR,,90.0,NOT_INSTALLED,1.0,0.0,0,1.0,3.0,,,,,,TO_RENOVATE,sint-pieters-leeuw,vlaams-brabant
10753189,ronse,9600,50.74928,3.60296,APARTMENT,LOFT,229000.0,BUY_REGULAR,13.0,112.0,,1.0,,0,1.0,,,,,2.0,,GOOD,ronse,oost-vlaanderen
11013725,destelbergen,9070,51.0556233,3.8037897,APARTMENT,APARTMENT,299000.0,BUY_REGULAR,,72.0,USA_HYPER_EQUIPPED,1.0,,0,1.0,14.0,,,,2.0,,AS_NEW,destelbergen,oost-vlaanderen
11036937,gent,9000,51.0274241,3.696983,APARTMENT,APARTMENT,320000.0,BUY_REGULAR,4.0,90.0,HYPER_EQUIPPED,1.0,,0,1.0,11.0,,,,,,GOOD,gent,oost-vlaanderen
10874556,brasschaat,2930,51.2767085,4.4682699,APARTMENT,APARTMENT,675000.0,BUY_REGULAR,,195.0,USA_SEMI_EQUIPPED,1.0,,0,1.0,29.0,,,,4.0,0.0,AS_NEW,brasschaat,antwerpen
10954427,mons,7000,50.448305,3.961646,APARTMENT,FLAT_STUDIO,130000.0,BUY_REGULAR,2.0,33.0,INSTALLED,1.0,1.0,0,,,,,,,0.0,GOOD,mons,henegouwen
10973693,sint-niklaas,9100,51.1740709,4.1395366,APARTMENT,APARTMENT,180000.0,BUY_REGULAR,11.0,84.0,,,,0,,,,,,,,,sint-niklaas,oost-vlaanderen
11144692,jambes,5100,50.4518964,4.8747899,APARTMENT,GROUND_FLOOR,303510.0,BUY_REGULAR,,91.0,INSTALLED,1.0,,1,1.0,15.0,1.0,117.0,,,,,namur,namen
11148788,brussel,1020,50.9010388,4.3582903,APARTMENT,APARTMENT,199000.0,BUY_REGULAR,,71.0,SEMI_EQUIPPED,1.0,,0,1.0,7.0,,,,2.0,0.0,TO_RENOVATE,brussel,brussel
10465432,sint-denijs-westrem,9051,51.0232446,3.697362,APARTMENT,APARTMENT,120000.0,BUY_REGULAR,,67.0,NOT_INSTALLED,1.0,,0,,,,,,2.0,,TO_BE_DONE_UP,gent,oost-vlaanderen
11150748,anderlecht,1070,50.8478801,4.3146214,APARTMENT,APARTMENT,184900.0,BUY_REGULAR,4.0,65.0,NOT_INSTALLED,1.0,0.0,0,,,,,,2.0,0.0,TO_RENOVATE,anderlecht,brussel
10887492,loksbergen,3545,50.9333234,5.0675747,APARTMENT,GROUND_FLOOR,259000.0,BUY_REGULAR,,95.0,HYPER_EQUIPPED,1.0,,0,1.0,25.0,,,,3.0,0.0,AS_NEW,halen,limburg
10759885,knokke-heist,8300,,,APARTMENT,DUPLEX,2295000.0,BUY_REGULAR,4.0,154.0,HYPER_EQUIPPED,1.0,,0,1.0,11.0,,,,2.0,0.0,AS_NEW,knokke-heist,west-vlaanderen
10981810,ingelmunster,8770,50.9180739,3.2520029,APARTMENT,APARTMENT,345000.0,BUY_REGULAR,8.0,132.0,INSTALLED,1.0,,0,1.0,31.0,,,,,,,ingelmunster,west-vlaanderen
11157589,anderlecht,1070,,,APARTMENT,APARTMENT,199000.0,BUY_REGULAR,6.0,68.0,USA_SEMI_EQUIPPED,1.0,0.0,0,,,1.0,108.0,,2.0,0.0,TO_RENOVATE,anderlecht,brussel
11150619,elsene,1050,50.8286819,4.3630138,APARTMENT,APARTMENT,495000.0,BUY_REGULAR,,134.0,INSTALLED,1.0,0.0,0,1.0,12.0,,,,2.0,0.0,GOOD,elsene,brussel
11156979,ukkel,1180,50.8059893,4.3471158,APARTMENT,APARTMENT,400000.0,BUY_REGULAR,,120.0,INSTALLED,1.0,,1,1.0,10.0,,,,2.0,0.0,GOOD,ukkel,brussel
11146874,fosses-la-ville,5070,50.3870233,4.6873714,APARTMENT,APARTMENT,110000.0,BUY_REGULAR,,101.0,SEMI_EQUIPPED,1.0,,0,,,,,,3.0,,,fosses-la-ville,namen
11156343,nivelles,1400,50.5873153,4.3136811,APARTMENT,DUPLEX,380000.0,BUY_REGULAR,7.0,163.0,SEMI_EQUIPPED,1.0,,0,1.0,6.0,,,,,0.0,GOOD,nivelles,waals-brabant
11131776,knokke-heist,8300,51.3468796,3.2886705,APARTMENT,APARTMENT,399500.0,BUY_REGULAR,1.0,53.0,,,,0,,,,,,,,GOOD,knokke-heist,west-vlaanderen
11122281,gent,9000,51.057567,3.7245815,APARTMENT,PENTHOUSE,1495000.0,BUY_REGULAR,12.0,209.0,,,,0,1.0,25.0,1.0,13.0,,,,,gent,oost-vlaanderen
11152449,grâce-hollogne,4460,50.6327855,5.3965264,APARTMENT,APARTMENT,275000.0,BUY_REGULAR,,173.0,SEMI_EQUIPPED,1.0,,1,1.0,10.0,,,,4.0,,JUST_RENOVATED,grâce-hollogne,luik
11088279,waver,1300,50.7111059,4.5911782,APARTMENT,APARTMENT,310000.0,BUY_REGULAR,,73.0,INSTALLED,1.0,,1,1.0,4.0,,,,,,,wavre,waals-brabant
11031703,leuven,3000,50.8800899,4.7074722,APARTMENT,APARTMENT,518750.0,BUY_REGULAR,,125.0,INSTALLED,1.0,,0,,,,,,3.0,,GOOD,leuven,vlaams-brabant
11148642,oostende,8400,51.2182751,2.9015267,APARTMENT,APARTMENT,79000.0,BUY_REGULAR,6.0,52.0,,,,0,,,,,,,,TO_RENOVATE,oostende,west-vlaanderen
11023573,sint-gillis,1060,,,APARTMENT,TRIPLEX,1495000.0,BUY_REGULAR,4.0,254.0,HYPER_EQUIPPED,1.0,0.0,0,1.0,3.0,,,,2.0,0.0,GOOD,sint-gillis,brussel
11154400,etterbeek,1040,,,APARTMENT,DUPLEX,225000.0,BUY_REGULAR,,75.0,,1.0,0.0,0,1.0,3.0,,,,2.0,0.0,TO_BE_DONE_UP,etterbeek,brussel
10972930,evere,1140,50.8789854,4.3924799,APARTMENT,PENTHOUSE,529000.0,BUY_REGULAR,,127.0,USA_HYPER_EQUIPPED,1.0,0.0,0,1.0,16.0,,,,3.0,0.0,,evere,brussel
11078212,niel,2845,51.1086369,4.3300337,APARTMENT,APARTMENT,169000.0,BUY_REGULAR,10.0,101.0,INSTALLED,1.0,,0,,,,,,,,,niel,antwerpen
10435227,hasselt,3500,50.9215166,5.3447405,APARTMENT,APARTMENT,395000.0,BUY_REGULAR,8.0,95.0,INSTALLED,1.0,,0,,,,,,,,GOOD,hasselt,limburg
11162484,koksijde,8670,,,APARTMENT,APARTMENT,299000.0,BUY_REGULAR,,80.0,INSTALLED,1.0,,1,,,,,,,,GOOD,koksijde,west-vlaanderen
11146098,liège grivegnée,4030,50.6283039,5.5964199,APARTMENT,APARTMENT,150000.0,BUY_REGULAR,,74.0,SEMI_EQUIPPED,1.0,0.0,0,1.0,6.0,,,,3.0,0.0,TO_RENOVATE,liège,luik
10871304,elsene,1050,50.8238494,4.3681903,APARTMENT,APARTMENT,545000.0,BUY_REGULAR,3.0,129.0,USA_HYPER_EQUIPPED,1.0,1.0,0,1.0,4.0,,,,4.0,0.0,GOOD,elsene,brussel
10949804,leuven,3000,50.8783586,4.7117478,APARTMENT,APARTMENT,456500.0,BUY_REGULAR,,85.0,INSTALLED,1.0,,0,1.0,6.0,,,,2.0,0.0,AS_NEW,leuven,vlaams-brabant
11159961,sint-niklaas,9100,51.1541311,4.1573398,APARTMENT,APARTMENT,149000.0,BUY_REGULAR,,81.0,SEMI_EQUIPPED,1.0,,0,1.0,15.0,,,,2.0,,,sint-niklaas,oost-vlaanderen
9878205,hasselt,3500,50.9313047,5.3365647,APARTMENT,APARTMENT,442900.0,BUY_REGULAR,9.0,81.0,,,,0,1.0,22.0,,,,,,GOOD,hasselt,limburg
11149909,destelbergen,9070,51.0599298,3.8032872,APARTMENT,PENTHOUSE,585000.0,BUY_REGULAR,,102.0,HYPER_EQUIPPED,1.0,,0,1.0,29.0,,,,3.0,0.0,AS_NEW,destelbergen,oost-vlaanderen
11066606,knokke-heist,8300,51.3539012,3.297358,APARTMENT,APARTMENT,1395000.0,BUY_REGULAR,,93.0,USA_HYPER_EQUIPPED,1.0,0.0,0,1.0,,1.0,15.0,,2.0,0.0,GOOD,knokke-heist,west-vlaanderen
11038479,sint-lambrechts-woluwe,1200,50.8401828,4.4355698,APARTMENT,APARTMENT,385000.0,BUY_REGULAR,,76.0,USA_HYPER_EQUIPPED,1.0,0.0,0,1.0,3.0,,,,3.0,0.0,AS_NEW,sint-lambrechts-woluwe,brussel
11032761,oudenaarde,9700,50.8401636,3.6117193,APARTMENT,APARTMENT,269000.0,BUY_REGULAR,7.0,66.0,,1.0,,0,1.0,9.0,,,,4.0,,,oudenaarde,oost-vlaanderen
9991630,sint-gillis,1060,50.8325162,4.3538998,APARTMENT,PENTHOUSE,925000.0,BUY_REGULAR,,197.0,USA_HYPER_EQUIPPED,1.0,,1,1.0,41.0,,,,2.0,,JUST_RENOVATED,sint-gillis,brussel
11144839,dilsen,3650,51.0357232,5.7249664,APARTMENT,APARTMENT,315727.0,BUY_REGULAR,,99.0,INSTALLED,1.0,,0,1.0,12.0,,,,,,,dilsen-stokkem,limburg
10801411,kruibeke,9150,51.1267808,4.2904673,APARTMENT,PENTHOUSE,445000.0,BUY_REGULAR,1.0,121.0,,,,0,,,1.0,78.0,,3.0,,GOOD,kruibeke,oost-vlaanderen
10878611,evere,1140,50.8636088,4.4124872,APARTMENT,APARTMENT,299000.0,BUY_REGULAR,,123.0,HYPER_EQUIPPED,1.0,0.0,0,1.0,7.0,,,,2.0,0.0,TO_BE_DONE_UP,evere,brussel
10869107,liege,4000,50.6218399,5.5669593,APARTMENT,APARTMENT,399000.0,BUY_REGULAR,,156.0,INSTALLED,1.0,0.0,0,1.0,25.0,,,,2.0,0.0,AS_NEW,liège,luik
10971862,wommelgem,2160,51.2038723,4.5239517,APARTMENT,APARTMENT,399000.0,BUY_REGULAR,,105.0,INSTALLED,1.0,0.0,0,1.0,18.0,,,,2.0,0.0,AS_NEW,wommelgem,antwerpen
11145299,koekelberg,1081,50.861943,4.334054,APARTMENT,APARTMENT,245000.0,BUY_REGULAR,,105.0,,,0.0,0,,,,,,2.0,0.0,,koekelberg,brussel
11003820,etterbeek,1040,50.82801,4.3836584,APARTMENT,GROUND_FLOOR,289000.0,BUY_REGULAR,,92.0,HYPER_EQUIPPED,1.0,,0,,,,,,,0.0,GOOD,etterbeek,brussel
11148095,elsene,1050,,,APARTMENT,APARTMENT,295000.0,BUY_REGULAR,,90.0,,,,1,,,,,,,,TO_RENOVATE,elsene,brussel
10590296,knokke-heist,8300,51.3484796,3.2769162,APARTMENT,APARTMENT,1350000.0,BUY_REGULAR,12.0,75.0,HYPER_EQUIPPED,1.0,,0,,,,,,2.0,,AS_NEW,knokke-heist,west-vlaanderen
11161176,antwerpen (2000),2000,51.2154069,4.4129726,APARTMENT,APARTMENT,269000.0,BUY_REGULAR,12.0,101.0,,1.0,,0,1.0,1.0,,,,,,TO_BE_DONE_UP,antwerpen,antwerpen
11149533,hoeilaart,1560,,,APARTMENT,APARTMENT,325000.0,BUY_REGULAR,,80.0,NOT_INSTALLED,1.0,0.0,0,1.0,,,,,2.0,0.0,JUST_RENOVATED,hoeilaart,vlaams-brabant
11087198,liège,4020,50.6272523,5.5796734,APARTMENT,APARTMENT,260000.0,BUY_REGULAR,,88.0,NOT_INSTALLED,1.0,,0,1.0,8.0,,,,2.0,,GOOD,liège,luik
10498380,brussel,1000,,,APARTMENT,PENTHOUSE,320000.0,BUY_REGULAR,,140.0,INSTALLED,1.0,0.0,0,,,,,,2.0,0.0,TO_RENOVATE,brussel,brussel
11098637,antwerpen (2018),2018,51.2007319,4.4214064,APARTMENT,FLAT_STUDIO,110000.0,BUY_REGULAR,4.0,37.0,,,,0,,,,,,,,,antwerpen,antwerpen
10938739,de panne,8660,51.1048221,2.5958592,APARTMENT,APARTMENT,162000.0,PUBLIC_SALE,,63.0,,,,0,,,,,,2.0,,,de panne,west-vlaanderen
11161325,mechelen,2800,51.0240088,4.468717,APARTMENT,APARTMENT,329056.0,BUY_REGULAR,4.0,79.0,,,,0,1.0,13.0,,,,,,,mechelen,antwerpen
11149929,gent,9000,51.0499226,3.7238132,APARTMENT,APARTMENT,1595000.0,BUY_REGULAR,3.0,153.0,USA_HYPER_EQUIPPED,1.0,0.0,0,1.0,21.0,,,,2.0,0.0,AS_NEW,gent,oost-vlaanderen
11157602,brussel,1020,50.8751812,4.3411634,APARTMENT,GROUND_FLOOR,210000.0,BUY_REGULAR,,60.0,SEMI_EQUIPPED,1.0,0.0,0,,,,,,2.0,0.0,TO_BE_DONE_UP,brussel,brussel
11042681,arlon heinsch,6700,49.6715091,5.788691,APARTMENT,APARTMENT,315000.0,BUY_REGULAR,,84.0,SEMI_EQUIPPED,1.0,0.0,0,1.0,70.0,,,,,0.0,GOOD,arlon,luxemburg
10736251,westende,8434,51.1695141,2.7754035,APARTMENT,FLAT_STUDIO,84500.0,BUY_REGULAR,,27.0,,,1.0,0,1.0,,,,,2.0,0.0,,middelkerke,west-vlaanderen
10670346,scherpenheuvel-zichem testelt,3272,51.016921,4.9549334,APARTMENT,SERVICE_FLAT,344764.0,BUY_REGULAR,,91.0,,,,0,1.0,46.0,,,,4.0,,AS_NEW,scherpenheuvel-zichem,vlaams-brabant
10707657,knokke-heist,8300,51.3441151,3.2773864,APARTMENT,APARTMENT,975000.0,BUY_REGULAR,,112.0,USA_HYPER_EQUIPPED,1.0,0.0,0,,,,,,2.0,0.0,JUST_RENOVATED,knokke-heist,west-vlaanderen
11091510,brugge,8200,51.2038709,3.2084448,APARTMENT,APARTMENT,244000.0,BUY_REGULAR,,102.0,USA_SEMI_EQUIPPED,1.0,0.0,0,1.0,,,,,2.0,0.0,GOOD,brugge,west-vlaanderen
10817879,neder-over-heembeek,1120,50.9038447,4.3861531,APARTMENT,APARTMENT,205000.0,BUY_REGULAR,,86.0,,1.0,0.0,0,1.0,8.0,,,,3.0,0.0,TO_RESTORE,brussel,brussel
11149174,rochefort,5580,50.1575944,5.2230869,APARTMENT,APARTMENT,189000.0,BUY_REGULAR,,89.0,INSTALLED,1.0,0.0,0,1.0,87.0,,,,2.0,0.0,GOOD,rochefort,namen
10964907,antwerpen (2018),2018,51.2004565,4.4089036,APARTMENT,FLAT_STUDIO,149900.0,BUY_REGULAR,5.0,50.0,SEMI_EQUIPPED,1.0,,0,,,,,,,,TO_BE_DONE_UP,antwerpen,antwerpen
10785457,middelkerke,8434,51.168484,2.7763641,APARTMENT,APARTMENT,180000.0,BUY_REGULAR,1.0,59.0,,,,0,1.0,4.0,,,,,,GOOD,middelkerke,west-vlaanderen
10893527,waregem,8790,50.8812525,3.442244,APARTMENT,APARTMENT,449000.0,BUY_REGULAR,9.0,99.0,INSTALLED,1.0,,0,1.0,38.0,,,,,,GOOD,waregem,west-vlaanderen
11145116,knokke-heist,8300,51.3510707,3.2878653,APARTMENT,APARTMENT,499000.0,BUY_REGULAR,,96.0,,,0.0,0,,,,,,2.0,0.0,,knokke-heist,west-vlaanderen
11096822,linkebeek,1630,50.765157,4.3442604,APARTMENT,APARTMENT,225000.0,BUY_REGULAR,,75.0,SEMI_EQUIPPED,1.0,0.0,0,,,,,,2.0,0.0,TO_BE_DONE_UP,linkebeek,vlaams-brabant
11138546,de haan,8420,51.2571575,2.9994248,APARTMENT,APARTMENT,87000.0,BUY_REGULAR,1.0,32.0,,,,0,,,,,,,,GOOD,de haan,west-vlaanderen
11061918,elsene,1050,50.8172246,4.3806934,APARTMENT,PENTHOUSE,579000.0,BUY_REGULAR,,121.0,USA_INSTALLED,1.0,,0,1.0,14.0,,,,2.0,0.0,AS_NEW,elsene,brussel
11128088,roeselare,8800,50.952018,3.1303301,APARTMENT,GROUND_FLOOR,115000.0,BUY_REGULAR,1.0,60.0,,,,0,,,,,,,,GOOD,roeselare,west-vlaanderen
11150509,aalst,9300,50.9364487,4.0430635,APARTMENT,APARTMENT,279000.0,BUY_REGULAR,,126.0,SEMI_EQUIPPED,1.0,,0,1.0,,,,,2.0,,GOOD,aalst,oost-vlaanderen
11162850,bruxelles  1,1000,,,APARTMENT,APARTMENT,295000.0,BUY_REGULAR,,60.0,INSTALLED,1.0,0.0,0,1.0,2.0,,,,2.0,,,brussel,brussel
11146548,luik,4000,50.6441469,5.5671924,APARTMENT,FLAT_STUDIO,149000.0,BUY_REGULAR,,72.0,INSTALLED,1.0,,0,,,,,,2.0,,GOOD,liège,luik
10836008,jette,1090,50.8931092,4.3233858,APARTMENT,APARTMENT,139000.0,BUY_REGULAR,,54.0,NOT_INSTALLED,1.0,0.0,0,1.0,6.0,,,,,0.0,TO_BE_DONE_UP,jette,brussel
10671623,scherpenheuvel-zichem testelt,3272,51.016921,4.9549334,APARTMENT,SERVICE_FLAT,288773.0,BUY_REGULAR,,74.0,,,,0,1.0,44.0,,,,4.0,,AS_NEW,scherpenheuvel-zichem,vlaams-brabant
11152991,zwijndrecht,2070,51.2119633,4.332682,APARTMENT,APARTMENT,387840.0,BUY_REGULAR,8.0,122.0,,,,0,,,,,,,,,zwijndrecht,antwerpen
10877955,kraainem,1950,50.8437837,4.4685413,APARTMENT,PENTHOUSE,995000.0,BUY_REGULAR,4.0,173.0,USA_HYPER_EQUIPPED,1.0,0.0,0,1.0,14.0,,,,2.0,0.0,AS_NEW,kraainem,vlaams-brabant
11036391,knokke-heist,8300,51.352239,3.2880182,APARTMENT,APARTMENT,995000.0,BUY_REGULAR,1.0,70.0,,,,0,,,,,,,,GOOD,knokke-heist,west-vlaanderen
11020258,gent,9000,51.0408152,3.7410737,APARTMENT,APARTMENT,759000.0,BUY_REGULAR,14.0,167.0,,1.0,,0,1.0,20.0,1.0,1000.0,,,,GOOD,gent,oost-vlaanderen
11161856,peer,3990,51.1333219,5.448936,APARTMENT,APARTMENT,335000.0,BUY_REGULAR,,161.0,,,,0,1.0,,,,,2.0,,,peer,limburg
11115648,geraardsbergen,9500,50.7727413,3.8801389,APARTMENT,APARTMENT,257000.0,BUY_REGULAR,,97.0,,,,0,1.0,9.0,,,,2.0,0.0,AS_NEW,geraardsbergen,oost-vlaanderen
11146101,deinze,9800,,,APARTMENT,APARTMENT,175000.0,BUY_REGULAR,,64.0,INSTALLED,1.0,0.0,0,1.0,7.0,,,,2.0,0.0,GOOD,deinze,oost-vlaanderen
10907116,bierbeek,3360,50.8558443,4.7765579,APARTMENT,APARTMENT,504280.0,BUY_REGULAR,,96.0,HYPER_EQUIPPED,1.0,0.0,0,1.0,6.0,,,,4.0,1.0,AS_NEW,bierbeek,vlaams-brabant
11149643,middelkerke,8434,51.1710172,2.7750459,APARTMENT,APARTMENT,570000.0,BUY_REGULAR,,78.0,HYPER_EQUIPPED,1.0,1.0,0,1.0,1.0,,,,2.0,0.0,GOOD,middelkerke,west-vlaanderen
10689641,berlaar,2590,51.0835174,4.6652995,APARTMENT,APARTMENT,365000.0,BUY_REGULAR,,101.0,INSTALLED,1.0,,1,1.0,34.0,1.0,32.0,,2.0,,,berlaar,antwerpen
11051992,blankenberge,8370,51.3187527,3.1421149,APARTMENT,APARTMENT,435000.0,BUY_REGULAR,,78.0,INSTALLED,1.0,,0,1.0,12.0,,,,2.0,,,blankenberge,west-vlaanderen
11151802,westende,8434,51.1701022,2.7791258,APARTMENT,PENTHOUSE,495000.0,BUY_REGULAR,,85.0,,,0.0,0,,,,,,4.0,0.0,,middelkerke,west-vlaanderen
11077124,deurne (2100),2100,51.1977023,4.4566652,APARTMENT,APARTMENT,239000.0,BUY_REGULAR,9.0,78.0,HYPER_EQUIPPED,1.0,,0,1.0,5.0,,,,,,,antwerpen,antwerpen
10976191,oostende,8400,51.230601,2.9128523,APARTMENT,PENTHOUSE,389000.0,BUY_REGULAR,1.0,95.0,,,,0,1.0,56.0,,,,,,GOOD,oostende,west-vlaanderen
11162303,sint-jans-molenbeek,1080,,,APARTMENT,PENTHOUSE,1175000.0,BUY_REGULAR,3.0,280.0,HYPER_EQUIPPED,1.0,0.0,0,1.0,122.0,,,,,0.0,AS_NEW,sint-jans-molenbeek,brussel
11112322,vorst,1190,50.8139605,4.3207534,APARTMENT,APARTMENT,259000.0,BUY_REGULAR,,78.0,USA_HYPER_EQUIPPED,1.0,,0,1.0,,,,,2.0,,AS_NEW,vorst,brussel
11130744,kontich,2550,51.1407654,4.4468822,APARTMENT,APARTMENT,319000.0,BUY_REGULAR,,110.0,HYPER_EQUIPPED,1.0,,0,1.0,3.0,,,,2.0,,,kontich,antwerpen
11156884,binche,7130,50.414224,4.1660352,APARTMENT,APARTMENT,173568.0,BUY_REGULAR,,71.0,,,,0,,,,,,,,AS_NEW,binche,henegouwen
11153750,borgworm,4300,50.7012377,5.2683535,APARTMENT,DUPLEX,205000.0,BUY_REGULAR,,112.0,USA_INSTALLED,1.0,0.0,0,1.0,6.0,,,,2.0,,GOOD,waremme,luik
11161951,knokke-heist,8300,,,APARTMENT,APARTMENT,1175000.0,BUY_REGULAR,,75.0,,,0.0,0,1.0,,,,,2.0,0.0,AS_NEW,knokke-heist,west-vlaanderen
11144237,merchtem,1785,50.9560199,4.2266296,APARTMENT,DUPLEX,239000.0,BUY_REGULAR,,95.0,,1.0,,0,1.0,,,,,2.0,,AS_NEW,merchtem,vlaams-brabant
10776992,lummen,3560,50.9895907,5.1886428,APARTMENT,APARTMENT,328000.0,BUY_REGULAR,9.0,100.0,INSTALLED,1.0,,0,1.0,40.0,,,,,,,lummen,limburg
10878254,knokke-heist,8300,51.3534613,3.2932422,APARTMENT,APARTMENT,699000.0,BUY_REGULAR,,70.0,HYPER_EQUIPPED,1.0,1.0,0,,,,,,2.0,0.0,AS_NEW,knokke-heist,west-vlaanderen
10987764,sint-jans-molenbeek,1080,50.8638864,4.3356799,APARTMENT,DUPLEX,295000.0,BUY_REGULAR,,112.0,HYPER_EQUIPPED,1.0,0.0,0,,,,,,2.0,,AS_NEW,sint-jans-molenbeek,brussel
11104637,oudergem,1160,50.8163956,4.3989398,APARTMENT,APARTMENT,521500.0,BUY_REGULAR,,105.0,HYPER_EQUIPPED,1.0,,0,1.0,8.0,,,,,0.0,AS_NEW,oudergem,brussel
10725024,oostende,8400,51.2205145,2.9079009,APARTMENT,APARTMENT,179000.0,BUY_REGULAR,1.0,122.0,,,,0,1.0,7.0,1.0,7.0,,,,GOOD,oostende,west-vlaanderen
11142502,tubeke,1480,,,APARTMENT,APARTMENT,130000.0,BUY_REGULAR,,50.0,INSTALLED,1.0,,1,,,,,,2.0,,GOOD,tubize,waals-brabant
11123158,deurne (antwerpen),2100,51.2297525,4.4826011,APARTMENT,APARTMENT,225000.0,BUY_REGULAR,,67.0,,,0.0,0,,,,,,2.0,0.0,GOOD,antwerpen,antwerpen
11156006,antwerpen,2018,51.2175313,4.4248018,APARTMENT,APARTMENT,300000.0,BUY_REGULAR,,118.0,SEMI_EQUIPPED,1.0,,1,1.0,4.0,1.0,,,2.0,,GOOD,antwerpen,antwerpen
11078933,genk,3600,50.9891804,5.5262553,APARTMENT,APARTMENT,248500.0,BUY_REGULAR,,86.0,,,0.0,0,1.0,12.0,,,,2.0,0.0,GOOD,genk,limburg
11018502,etterbeek,1040,,,APARTMENT,PENTHOUSE,875000.0,BUY_REGULAR,,171.0,USA_HYPER_EQUIPPED,1.0,0.0,0,1.0,25.0,,,,3.0,0.0,JUST_RENOVATED,etterbeek,brussel
11152126,herentals,2200,51.1762886,4.8219671,APARTMENT,APARTMENT,179000.0,BUY_REGULAR,,91.0,SEMI_EQUIPPED,1.0,,1,1.0,,1.0,,,3.0,,GOOD,herentals,antwerpen
11145695,hoboken,2660,51.1773595,4.3497327,APARTMENT,APARTMENT,299900.0,BUY_REGULAR,6.0,90.0,HYPER_EQUIPPED,1.0,,0,,,1.0,50.0,,,,GOOD,antwerpen,antwerpen
11158258,courcelles,6180,50.43725,4.3633533,APARTMENT,APARTMENT,288860.0,BUY_REGULAR,,111.0,INSTALLED,1.0,,0,1.0,,,,,,,,courcelles,henegouwen
11162021,zottegem strijpen,9620,50.8677644,3.7877384,APARTMENT,APARTMENT,440000.0,BUY_REGULAR,,130.0,USA_HYPER_EQUIPPED,1.0,0.0,0,1.0,35.0,1.0,450.0,,2.0,0.0,AS_NEW,zottegem,oost-vlaanderen
11077910,bornem,2880,51.0949591,4.2386131,APARTMENT,APARTMENT,267000.0,BUY_REGULAR,,60.0,HYPER_EQUIPPED,1.0,0.0,0,1.0,26.0,,,,2.0,,AS_NEW,bornem,antwerpen
11042835,zottegem,9620,50.872104,3.8126265,APARTMENT,APARTMENT,209000.0,BUY_REGULAR,3.0,80.0,,1.0,,0,1.0,10.0,,,,,,GOOD,zottegem,oost-vlaanderen
11083698,avelgem,8582,50.7568488,3.4301409,APARTMENT,APARTMENT,220000.0,BUY_REGULAR,1.0,146.0,,1.0,,0,,,1.0,20.0,,,,GOOD,avelgem,west-vlaanderen
10944713,knokke,8300,51.3506522,3.2851973,APARTMENT,APARTMENT,1095000.0,BUY_REGULAR,13.0,122.0,INSTALLED,1.0,,0,1.0,35.0,,,,2.0,,,knokke-heist,west-vlaanderen
11144994,oud-turnhout,2360,51.317257,4.9816069,APARTMENT,APARTMENT,185000.0,BUY_REGULAR,,111.0,NOT_INSTALLED,1.0,,1,,,1.0,,,2.0,,GOOD,oud-turnhout,antwerpen
11144741,sint-jans-molenbeek,1080,,,APARTMENT,APARTMENT,249000.0,BUY_REGULAR,,95.0,HYPER_EQUIPPED,1.0,0.0,0,1.0,1.0,,,,2.0,,,sint-jans-molenbeek,brussel
10887972,jette,1090,,,APARTMENT,APARTMENT,269000.0,BUY_REGULAR,,118.0,INSTALLED,1.0,0.0,0,,,,,,2.0,0.0,GOOD,jette,brussel
11095548,sint-joris,8730,51.1241158,3.363189,APARTMENT,APARTMENT,189000.0,BUY_REGULAR,1.0,40.0,,,,0,,,,,,,,GOOD,beernem,west-vlaanderen
11082743,antwerpen,2000,51.2096589,4.3929445,APARTMENT,APARTMENT,739000.0,BUY_REGULAR,,193.0,INSTALLED,1.0,,0,,,,,,2.0,0.0,GOOD,antwerpen,antwerpen
11036932,gent,9000,51.0274241,3.696983,APARTMENT,APARTMENT,390000.0,BUY_REGULAR,5.0,96.0,HYPER_EQUIPPED,1.0,,0,1.0,26.0,,,,,,GOOD,gent,oost-vlaanderen
10413606,herne,1540,50.7248863,4.0289285,APARTMENT,APARTMENT,309500.0,BUY_REGULAR,,94.0,HYPER_EQUIPPED,1.0,0.0,0,1.0,24.0,,,,3.0,,AS_NEW,herne,vlaams-brabant
10759869,arlon,6700,49.6887959,5.8065921,APARTMENT,DUPLEX,420000.0,BUY_REGULAR,,115.0,INSTALLED,1.0,,0,1.0,13.0,,,,,,GOOD,arlon,luxemburg
11068136,antwerpen (2060),2060,51.2206847,4.4199571,APARTMENT,APARTMENT,235000.0,BUY_REGULAR,8.0,80.0,,,,0,1.0,2.0,,,,,,,antwerpen,antwerpen
11054710,zottegem,9620,50.8696852,3.8099937,APARTMENT,APARTMENT,375000.0,BUY_REGULAR,11.0,125.0,INSTALLED,1.0,,0,1.0,7.0,,,,2.0,,GOOD,zottegem,oost-vlaanderen
11084923,knokke-heist,8300,51.3525573,3.2878348,APARTMENT,APARTMENT,519000.0,BUY_REGULAR,,75.0,HYPER_EQUIPPED,1.0,0.0,0,,,,,,,0.0,AS_NEW,knokke-heist,west-vlaanderen
11044569,brussel,1000,,,APARTMENT,APARTMENT,270000.0,BUY_REGULAR,,100.0,SEMI_EQUIPPED,1.0,0.0,0,1.0,4.0,,,,2.0,0.0,TO_RENOVATE,brussel,brussel
11052733,schaarbeek,1030,50.8624095,4.3601281,APARTMENT,FLAT_STUDIO,102000.0,BUY_REGULAR,,36.0,INSTALLED,1.0,0.0,0,1.0,6.0,,,,4.0,0.0,TO_RENOVATE,schaarbeek,brussel
10853669,knokke-heist,8300,,,APARTMENT,APARTMENT,1595000.0,BUY_REGULAR,4.0,131.0,USA_HYPER_EQUIPPED,1.0,1.0,0,1.0,,,,,2.0,0.0,AS_NEW,knokke-heist,west-vlaanderen
10716421,menen,8930,50.7921839,3.1229972,APARTMENT,APARTMENT,185000.0,BUY_REGULAR,1.0,80.0,,,,0,,,,,,,,TO_BE_DONE_UP,menen,west-vlaanderen
11148568,de panne,8660,51.0999315,2.5918818,APARTMENT,APARTMENT,375000.0,BUY_REGULAR,9.0,162.0,,,,0,,,,,,,,,de panne,west-vlaanderen
11055540,wilrijk,2610,51.1693566,4.4108233,APARTMENT,SERVICE_FLAT,545000.0,BUY_REGULAR,,165.0,INSTALLED,1.0,0.0,0,1.0,50.0,,,,2.0,,GOOD,antwerpen,antwerpen
11055589,brussel,1000,50.8528335,4.3580307,APARTMENT,APARTMENT,349000.0,BUY_REGULAR,,112.0,USA_HYPER_EQUIPPED,1.0,0.0,0,1.0,6.0,,,,,,,brussel,brussel
10992652,sint-pieters-leeuw,1600,50.7867156,4.2675414,APARTMENT,APARTMENT,259000.0,BUY_REGULAR,9.0,75.0,INSTALLED,1.0,,0,,,,,,,,,sint-pieters-leeuw,vlaams-brabant
11088273,waver,1300,50.7111059,4.5911782,APARTMENT,GROUND_FLOOR,445000.0,BUY_REGULAR,,92.0,USA_SEMI_EQUIPPED,1.0,,1,1.0,18.0,1.0,,,2.0,,,wavre,waals-brabant
10967342,namur,5000,,,APARTMENT,APARTMENT,179000.0,BUY_REGULAR,,47.0,INSTALLED,1.0,,0,,,,,,,,GOOD,namur,namen
11161567,bredene,8450,51.2443158,2.9656685,APARTMENT,APARTMENT,115000.0,BUY_REGULAR,4.0,45.0,INSTALLED,1.0,,0,,,,,,,,TO_BE_DONE_UP,bredene,west-vlaanderen
11144100,elsene,1050,50.8371449,4.3632719,APARTMENT,FLAT_STUDIO,150000.0,BUY_REGULAR,,35.0,INSTALLED,1.0,0.0,0,,,,,,2.0,0.0,GOOD,elsene,brussel
11156823,anderlecht,1070,50.831669,4.3153713,APARTMENT,APARTMENT,248000.0,BUY_REGULAR,,66.0,USA_INSTALLED,1.0,,0,1.0,11.0,,,,4.0,0.0,,anderlecht,brussel
11076685,oudenburg,8460,51.1918529,3.0043138,APARTMENT,APARTMENT,273425.0,BUY_REGULAR,1.0,85.0,,,,0,1.0,14.0,,,,,,GOOD,oudenburg,west-vlaanderen
10935434,gembloux,5030,,,APARTMENT,APARTMENT,200000.0,BUY_REGULAR,,84.0,SEMI_EQUIPPED,1.0,,1,1.0,5.0,,,,4.0,,TO_BE_DONE_UP,gembloux,namen
11069809,knokke-heist,8300,51.359227,3.315606,APARTMENT,APARTMENT,1395000.0,BUY_REGULAR,1.0,97.0,,,,0,1.0,,,,,,,GOOD,knokke-heist,west-vlaanderen
10346585,sint-lambrechts-woluwe,1200,50.8465498,4.4332386,APARTMENT,APARTMENT,250000.0,BUY_REGULAR,,80.0,INSTALLED,1.0,0.0,0,1.0,18.0,,,,2.0,0.0,AS_NEW,sint-lambrechts-woluwe,brussel
11084672,sint-pieters-leeuw,1600,50.7875369,4.2712492,APARTMENT,APARTMENT,215000.0,BUY_REGULAR,,80.0,INSTALLED,1.0,,0,1.0,,,,,,,,sint-pieters-leeuw,vlaams-brabant
11017434,kieldrecht,9130,51.2876136,4.1682173,APARTMENT,APARTMENT,175000.0,BUY_REGULAR,,100.0,SEMI_EQUIPPED,1.0,,0,1.0,6.0,,,,4.0,0.0,TO_BE_DONE_UP,beveren-waas,oost-vlaanderen
11134768,berchem,2600,51.1814123,4.436353,APARTMENT,APARTMENT,259000.0,BUY_REGULAR,,112.0,INSTALLED,1.0,,1,1.0,19.0,,,,2.0,,GOOD,antwerpen,antwerpen
11125338,sint-niklaas,9100,51.1650688,4.1404493,APARTMENT,APARTMENT,430000.0,BUY_REGULAR,12.0,141.0,,,,0,1.0,,,,,,,,sint-niklaas,oost-vlaanderen
11159038,antwerpen,2018,51.204028,4.4093904,APARTMENT,APARTMENT,385000.0,BUY_REGULAR,,90.0,,,0.0,0,1.0,2.0,,,,2.0,,JUST_RENOVATED,antwerpen,antwerpen
11142277,schaarbeek,1030,,,APARTMENT,GROUND_FLOOR,195000.0,BUY_REGULAR,4.0,70.0,,,0.0,0,,,1.0,43.0,,2.0,0.0,TO_BE_DONE_UP,schaarbeek,brussel
10827768,dendermonde,9200,51.0241549,4.1014293,APARTMENT,APARTMENT,225000.0,BUY_REGULAR,,82.0,INSTALLED,1.0,,0,1.0,40.0,,,,2.0,,JUST_RENOVATED,dendermonde,oost-vlaanderen
11121721,wanze,4520,50.5325491,5.2187553,APARTMENT,APARTMENT,219000.0,BUY_REGULAR,,106.0,INSTALLED,1.0,,1,1.0,5.0,,,,2.0,,GOOD,wanze,luik
10971170,elsene,1050,50.8204056,4.3888027,APARTMENT,APARTMENT,780000.0,BUY_REGULAR,,154.0,USA_HYPER_EQUIPPED,1.0,0.0,0,1.0,17.0,,,,2.0,0.0,AS_NEW,elsene,brussel
10316124,knokke-heist,8300,,,APARTMENT,DUPLEX,4200000.0,BUY_REGULAR,,246.0,HYPER_EQUIPPED,1.0,0.0,0,1.0,10.0,,,,4.0,0.0,AS_NEW,knokke-heist,west-vlaanderen
11153640,desselgem (waregem),8792,50.8867904,3.3488611,APARTMENT,GROUND_FLOOR,230000.0,BUY_REGULAR,,85.0,,,0.0,0,1.0,15.0,1.0,96.0,,2.0,0.0,GOOD,waregem,west-vlaanderen
11148034,huy,4500,,,APARTMENT,APARTMENT,235000.0,BUY_REGULAR,,74.0,INSTALLED,1.0,,0,1.0,13.0,,,,,,,huy,luik
11082324,berchem,2600,51.1834,4.43283,APARTMENT,APARTMENT,220000.0,BUY_REGULAR,,85.0,SEMI_EQUIPPED,1.0,,1,1.0,11.0,,,,,,GOOD,antwerpen,antwerpen
11084138,deinze,9800,50.9813272,3.5292559,APARTMENT,APARTMENT,550000.0,BUY_REGULAR,11.0,130.0,INSTALLED,1.0,,0,1.0,26.0,,,,,,GOOD,deinze,oost-vlaanderen
11030444,knokke-zoute,8300,51.3531347,3.2928802,APARTMENT,APARTMENT,815000.0,BUY_REGULAR,12.0,76.0,HYPER_EQUIPPED,1.0,,0,,,,,,2.0,,AS_NEW,knokke-heist,west-vlaanderen
10556121,schaarbeek,1030,50.8649665,4.3913846,APARTMENT,APARTMENT,297000.0,BUY_REGULAR,,90.0,USA_INSTALLED,1.0,0.0,0,1.0,20.0,,,,2.0,0.0,AS_NEW,schaarbeek,brussel
11032667,temse,9140,51.1128792,4.1766805,APARTMENT,GROUND_FLOOR,169000.0,BUY_REGULAR,,55.0,SEMI_EQUIPPED,1.0,,0,1.0,10.0,,,,2.0,0.0,JUST_RENOVATED,temse,oost-vlaanderen
11062984,leuven,3000,50.868733,4.697385,APARTMENT,APARTMENT,248000.0,BUY_REGULAR,6.0,35.0,,1.0,,0,1.0,6.0,,,,,,AS_NEW,leuven,vlaams-brabant
11052679,elsene,1050,50.83708,4.3696222,APARTMENT,APARTMENT,295000.0,BUY_REGULAR,,96.0,USA_HYPER_EQUIPPED,1.0,0.0,0,,,,,,2.0,0.0,AS_NEW,elsene,brussel
11142719,leuven,3000,50.8878465,4.7017126,APARTMENT,FLAT_STUDIO,335000.0,BUY_REGULAR,,70.0,INSTALLED,1.0,1.0,0,,,,,,,0.0,AS_NEW,leuven,vlaams-brabant
11120250,antwerpen,2000,51.2063373,4.3817558,APARTMENT,APARTMENT,325000.0,BUY_REGULAR,,52.0,HYPER_EQUIPPED,1.0,0.0,0,1.0,,,,,2.0,0.0,,antwerpen,antwerpen
11063405,nieuwpoort,8620,,,APARTMENT,APARTMENT,595000.0,BUY_REGULAR,10.0,120.0,INSTALLED,1.0,,0,1.0,15.0,,,,,,,nieuwpoort,west-vlaanderen
11134859,willebroek,2830,51.0618314,4.3613843,APARTMENT,APARTMENT,259000.0,BUY_REGULAR,,80.0,SEMI_EQUIPPED,1.0,,0,,,,,,2.0,,JUST_RENOVATED,willebroek,antwerpen
11146296,gent,9000,51.0652335,3.690419,APARTMENT,APARTMENT,419000.0,BUY_REGULAR,,140.0,HYPER_EQUIPPED,1.0,,0,1.0,14.0,,,,2.0,0.0,AS_NEW,gent,oost-vlaanderen
11101189,gent,9040,51.0662719,3.7531496,APARTMENT,APARTMENT,295000.0,BUY_REGULAR,,104.0,,,0.0,0,,,,,,2.0,,,gent,oost-vlaanderen
11158398,leopoldsburg,3970,51.1166003,5.2616464,APARTMENT,APARTMENT,160000.0,BUY_REGULAR,,88.0,SEMI_EQUIPPED,1.0,,1,,,,,,2.0,,GOOD,leopoldsburg,limburg
11142671,jette,1090,50.8851402,4.3294583,APARTMENT,APARTMENT,159000.0,BUY_REGULAR,,56.0,SEMI_EQUIPPED,1.0,,1,1.0,,,,,2.0,,TO_BE_DONE_UP,jette,brussel
11078934,genk,3600,50.9891804,5.5262553,APARTMENT,APARTMENT,304300.0,BUY_REGULAR,,110.0,,,0.0,0,1.0,6.0,,,,2.0,0.0,GOOD,genk,limburg
11114618,engis,4480,50.5873686,5.402117,APARTMENT,APARTMENT,275000.0,BUY_REGULAR,,128.0,SEMI_EQUIPPED,1.0,,1,1.0,9.0,,,,3.0,,,engis,luik
11159044,blaasveld,2830,51.0509079,4.3725808,APARTMENT,APARTMENT,295191.0,BUY_REGULAR,,81.0,,,,0,1.0,19.0,,,,4.0,,,willebroek,antwerpen
10907129,bierbeek,3360,50.8558443,4.7765579,APARTMENT,DUPLEX,612860.0,BUY_REGULAR,,122.0,HYPER_EQUIPPED,1.0,0.0,0,1.0,6.0,,,,4.0,1.0,AS_NEW,bierbeek,vlaams-brabant
10699813,blankenberge,8370,51.3138197,3.1199111,APARTMENT,APARTMENT,395000.0,BUY_REGULAR,,67.0,INSTALLED,1.0,1.0,0,1.0,,,,,,,GOOD,blankenberge,west-vlaanderen
11150361,rebecq,1430,50.6653969,4.1308278,APARTMENT,APARTMENT,179000.0,BUY_REGULAR,7.0,70.0,INSTALLED,1.0,0.0,0,,,,,,2.0,0.0,GOOD,rebecq,waals-brabant
11148359,berchem (2600),2600,51.1939191,4.4207655,APARTMENT,APARTMENT,249000.0,BUY_REGULAR,10.0,76.0,,1.0,,0,1.0,4.0,,,,,,,antwerpen,antwerpen
11039784,sint-jans-molenbeek,1080,50.851832,4.3124576,APARTMENT,APARTMENT,239000.0,BUY_REGULAR,,106.0,INSTALLED,1.0,,0,1.0,12.0,,,,,,TO_BE_DONE_UP,sint-jans-molenbeek,brussel
11142752,wuustwezel,2990,51.3533197,4.5463974,APARTMENT,DUPLEX,299000.0,BUY_REGULAR,,185.0,INSTALLED,1.0,0.0,0,1.0,40.0,,,,2.0,0.0,AS_NEW,wuustwezel,antwerpen
11153134,vorst,1190,50.8223466,4.3325934,APARTMENT,APARTMENT,269000.0,BUY_REGULAR,,90.0,NOT_INSTALLED,1.0,,0,1.0,7.0,,,,2.0,0.0,TO_RENOVATE,vorst,brussel
11077303,antwerpen,2018,51.1979985,4.4111932,APARTMENT,APARTMENT,615000.0,BUY_REGULAR,,178.0,USA_HYPER_EQUIPPED,1.0,,0,1.0,10.0,,,,,,AS_NEW,antwerpen,antwerpen
9281813,bornem,2880,51.090593,4.2288369,APARTMENT,APARTMENT,195000.0,BUY_REGULAR,,62.0,INSTALLED,1.0,,1,1.0,6.0,,,,4.0,,,bornem,antwerpen
10550935,marche-en-famenne,6900,50.2205462,5.3462541,APARTMENT,APARTMENT,270983.0,BUY_REGULAR,,99.0,,,0.0,0,1.0,10.0,,,,,,AS_NEW,marche-en-famenne,luxemburg
11144511,sint-agatha-berchem,1082,50.8640039,4.2970437,APARTMENT,APARTMENT,279000.0,BUY_REGULAR,,100.0,NOT_INSTALLED,1.0,,0,,,,,,,,GOOD,sint-agatha-berchem,brussel
11154491,sint-lambrechts-woluwe,1200,50.8441566,4.410168,APARTMENT,APARTMENT,225000.0,BUY_REGULAR,,60.0,,1.0,,1,,,,,,3.0,,,sint-lambrechts-woluwe,brussel
10788645,bergen,7000,50.4614426,3.9694848,APARTMENT,APARTMENT,266000.0,BUY_REGULAR,,107.0,HYPER_EQUIPPED,1.0,0.0,0,1.0,20.0,,,,3.0,,AS_NEW,mons,henegouwen
10756852,eeklo,9900,51.1914402,3.5705551,APARTMENT,APARTMENT,254750.0,BUY_REGULAR,20.0,87.0,INSTALLED,1.0,,0,1.0,16.0,1.0,39.0,,,,GOOD,eeklo,oost-vlaanderen
11098873,houthulst,8650,50.9769281,2.9460705,APARTMENT,APARTMENT,227525.0,BUY_REGULAR,10.0,131.0,INSTALLED,1.0,,0,,,,,,,,,houthulst,west-vlaanderen
11100394,knokke-heist,8300,51.3450884,3.2614683,APARTMENT,APARTMENT,1595000.0,BUY_REGULAR,15.0,228.0,HYPER_EQUIPPED,1.0,,0,1.0,17.0,,,,2.0,,,knokke-heist,west-vlaanderen
11104799,borgerhout,2140,51.2139485,4.4416665,APARTMENT,APARTMENT,295000.0,BUY_REGULAR,9.0,121.0,,,,0,,,,,,,,,antwerpen,antwerpen
11148173,merksem,2170,51.2413493,4.4371051,APARTMENT,APARTMENT,145000.0,BUY_REGULAR,5.0,35.0,INSTALLED,1.0,,0,1.0,3.0,,,,,,,antwerpen,antwerpen
11145323,stekene,9190,51.2021331,4.0374895,APARTMENT,APARTMENT,199500.0,BUY_REGULAR,,53.0,HYPER_EQUIPPED,1.0,,1,1.0,5.0,,,,2.0,,,stekene,oost-vlaanderen
11148681,kortrijk,8500,50.8221546,3.2583534,APARTMENT,APARTMENT,199000.0,BUY_REGULAR,,48.0,HYPER_EQUIPPED,1.0,0.0,0,1.0,14.0,,,,2.0,0.0,AS_NEW,kortrijk,west-vlaanderen
11153210,lede,9340,50.9654903,3.9806274,APARTMENT,APARTMENT,339000.0,BUY_REGULAR,,93.0,SEMI_EQUIPPED,1.0,,0,1.0,9.0,,,,,,,lede,oost-vlaanderen
11155949,gent,9000,51.0542501,3.6979146,APARTMENT,APARTMENT,675000.0,BUY_REGULAR,,219.0,INSTALLED,1.0,,0,,,,,,,,GOOD,gent,oost-vlaanderen
11157746,jambes,5100,50.4453303,4.8749873,APARTMENT,APARTMENT,340000.0,BUY_REGULAR,,119.0,HYPER_EQUIPPED,1.0,,0,1.0,10.0,,,,2.0,,AS_NEW,namur,namen
11159017,sint-pieters-woluwe,1150,,,APARTMENT,PENTHOUSE,645000.0,BUY_REGULAR,,132.0,HYPER_EQUIPPED,1.0,0.0,0,1.0,62.0,,,,3.0,0.0,GOOD,sint-pieters-woluwe,brussel
11160413,schaarbeek,1030,50.8752052,4.3762384,APARTMENT,APARTMENT,225000.0,BUY_REGULAR,,111.0,SEMI_EQUIPPED,1.0,,1,1.0,4.0,,,,2.0,,GOOD,schaarbeek,brussel
11155339,zwijndrecht,2070,51.2147966,4.3300424,APARTMENT,APARTMENT,319500.0,BUY_REGULAR,9.0,80.0,,1.0,,0,1.0,11.0,,,,,,,zwijndrecht,antwerpen
11149621,anderlecht,1070,50.830228,4.3013545,APARTMENT,APARTMENT,245000.0,BUY_REGULAR,4.0,75.0,,,,0,,,,,,,,GOOD,anderlecht,brussel
11159843,waterloo,1410,50.70069,4.40213,APARTMENT,APARTMENT,290000.0,BUY_REGULAR,,80.0,INSTALLED,1.0,0.0,0,1.0,6.0,,,,2.0,,GOOD,waterloo,waals-brabant
11145167,deurne (antwerpen),2100,51.2030097,4.4669417,APARTMENT,APARTMENT,219000.0,BUY_REGULAR,,90.0,SEMI_EQUIPPED,1.0,,0,1.0,5.0,,,,3.0,,GOOD,antwerpen,antwerpen
10430826,antwerpen,2000,51.2301643,4.4170893,APARTMENT,FLAT_STUDIO,127500.0,BUY_REGULAR,,30.0,USA_INSTALLED,1.0,1.0,0,1.0,6.0,,,,4.0,,GOOD,antwerpen,antwerpen
11161326,mechelen,2800,,,APARTMENT,APARTMENT,548911.0,BUY_REGULAR,5.0,125.0,,,,0,1.0,28.0,,,,,,,mechelen,antwerpen
10912990,ukkel,1180,50.8120984,4.3515222,APARTMENT,APARTMENT,725000.0,BUY_REGULAR,7.0,167.0,INSTALLED,1.0,0.0,0,1.0,12.0,,,,2.0,0.0,,ukkel,brussel
11141868,duinbergen,8301,,,APARTMENT,APARTMENT,139000.0,BUY_REGULAR,6.0,43.0,INSTALLED,1.0,,0,1.0,8.0,,,,,,,knokke-heist,west-vlaanderen
11150458,sint-gillis,1060,,,APARTMENT,APARTMENT,495000.0,BUY_REGULAR,,150.0,,,0.0,0,1.0,6.0,,,,,0.0,TO_RENOVATE,sint-gillis,brussel
11153293,jette,1090,50.8756959,4.3272313,APARTMENT,APARTMENT,365000.0,BUY_REGULAR,,108.0,USA_HYPER_EQUIPPED,1.0,0.0,0,1.0,24.0,,,,2.0,0.0,AS_NEW,jette,brussel
11150179,mechelen,2800,51.0202389,4.4850556,APARTMENT,APARTMENT,268000.0,BUY_REGULAR,,63.0,INSTALLED,1.0,,0,1.0,10.0,,,,2.0,,GOOD,mechelen,antwerpen
11154599,seraing,4100,50.580234,5.5029479,APARTMENT,APARTMENT,199000.0,BUY_REGULAR,11.0,100.0,INSTALLED,1.0,0.0,0,,,,,,3.0,0.0,GOOD,seraing,luik
10798997,oostende,8400,51.2301404,2.9101418,APARTMENT,APARTMENT,499000.0,BUY_REGULAR,9.0,100.0,,1.0,,0,,,,,,,,TO_BE_DONE_UP,oostende,west-vlaanderen
11063565,ukkel,1180,50.8095449,4.3690692,APARTMENT,APARTMENT,381000.0,BUY_REGULAR,,68.0,USA_HYPER_EQUIPPED,1.0,0.0,0,1.0,5.0,,,,2.0,0.0,AS_NEW,ukkel,brussel
11134862,knokke-heist,8300,51.3399263,3.2296555,APARTMENT,APARTMENT,2095000.0,BUY_REGULAR,14.0,97.0,HYPER_EQUIPPED,1.0,,0,,,,,,2.0,,,knokke-heist,west-vlaanderen
11129251,brussel,1000,50.8412782,4.3395613,APARTMENT,APARTMENT,325000.0,BUY_REGULAR,,200.0,NOT_INSTALLED,1.0,,0,,,,,,2.0,,TO_RENOVATE,brussel,brussel
10981384,brakel,9660,50.7993435,3.7590665,APARTMENT,APARTMENT,299000.0,BUY_REGULAR,8.0,86.0,INSTALLED,1.0,,0,1.0,10.0,,,,,,GOOD,brakel,oost-vlaanderen
11136707,brussel,1000,,,APARTMENT,LOFT,650000.0,BUY_REGULAR,,160.0,USA_HYPER_EQUIPPED,1.0,0.0,0,,,,,,2.0,0.0,AS_NEW,brussel,brussel
11137844,brussel,1020,50.8994252,4.3534847,APARTMENT,APARTMENT,199000.0,BUY_REGULAR,,95.0,INSTALLED,1.0,,0,1.0,,,,,2.0,0.0,TO_BE_DONE_UP,brussel,brussel
11144782,lokeren,9160,51.1123818,3.9823993,APARTMENT,APARTMENT,168000.0,BUY_REGULAR,,83.0,SEMI_EQUIPPED,1.0,,0,,,,,,2.0,,GOOD,lokeren,oost-vlaanderen
11154521,blankenberge,8370,51.3115247,3.1216732,APARTMENT,APARTMENT,299000.0,BUY_REGULAR,,83.0,,1.0,0.0,0,,,,,,2.0,0.0,,blankenberge,west-vlaanderen
10410612,gent,9000,51.0290225,3.6926174,APARTMENT,APARTMENT,365000.0,BUY_REGULAR,10.0,101.0,INSTALLED,1.0,,0,1.0,13.0,,,,,,GOOD,gent,oost-vlaanderen
11009255,antwerpen,2000,51.2214796,4.4021454,APARTMENT,APARTMENT,425000.0,BUY_REGULAR,,117.0,HYPER_EQUIPPED,1.0,0.0,0,,,,,,,,AS_NEW,antwerpen,antwerpen
11158395,leopoldsburg,3970,51.1165428,5.261277,APARTMENT,APARTMENT,170000.0,BUY_REGULAR,,95.0,SEMI_EQUIPPED,1.0,,1,1.0,,,,,2.0,,GOOD,leopoldsburg,limburg
11159868,edegem,2650,51.1708453,4.4350469,APARTMENT,FLAT_STUDIO,140092.0,BUY_REGULAR,1.0,29.0,INSTALLED,1.0,,0,,,1.0,800.0,,2.0,0.0,AS_NEW,edegem,antwerpen
11127467,ukkel,1180,50.805875,4.3563783,APARTMENT,APARTMENT,750000.0,BUY_REGULAR,,190.0,HYPER_EQUIPPED,1.0,0.0,1,1.0,10.0,,,,3.0,,GOOD,ukkel,brussel
11102954,astene,9800,50.9817215,3.5485845,APARTMENT,APARTMENT,420000.0,BUY_REGULAR,10.0,93.0,INSTALLED,1.0,,0,,,,,,,,,deinze,oost-vlaanderen
11149522,antwerpen,2000,51.2216914,4.4168131,APARTMENT,APARTMENT,769500.0,BUY_REGULAR,,162.0,HYPER_EQUIPPED,1.0,0.0,0,1.0,16.0,,,,2.0,0.0,AS_NEW,antwerpen,antwerpen
11124748,dilbeek itterbeek,1701,50.8424442,4.2447424,APARTMENT,APARTMENT,425000.0,BUY_REGULAR,,187.0,USA_INSTALLED,1.0,,0,1.0,60.0,1.0,130.0,,4.0,,GOOD,dilbeek,vlaams-brabant
10960590,mechelen,2800,51.016192,4.4978875,APARTMENT,GROUND_FLOOR,245000.0,BUY_REGULAR,,90.0,INSTALLED,1.0,,0,1.0,30.0,,,,2.0,0.0,,mechelen,antwerpen
11133610,antwerpen 2050,2050,51.2169107,4.3643328,APARTMENT,PENTHOUSE,285000.0,BUY_REGULAR,,73.0,HYPER_EQUIPPED,1.0,,1,1.0,11.0,,,,,,,antwerpen,antwerpen
11157633,antwerpen,2000,51.2101877,4.4055519,APARTMENT,APARTMENT,555000.0,BUY_REGULAR,,134.0,HYPER_EQUIPPED,1.0,,1,1.0,,,,,2.0,,JUST_RENOVATED,antwerpen,antwerpen
11143377,tongeren,3700,50.7786536,5.4637889,APARTMENT,APARTMENT,142500.0,BUY_REGULAR,6.0,65.0,INSTALLED,1.0,,0,,,,,,,,GOOD,tongeren,limburg
11030188,bellegem,8510,,,APARTMENT,APARTMENT,249000.0,BUY_REGULAR,1.0,127.0,,1.0,,0,,,,,,,,GOOD,kortrijk,west-vlaanderen
11156236,merksem,2170,51.2468353,4.4320762,APARTMENT,APARTMENT,250000.0,BUY_REGULAR,,141.0,INSTALLED,1.0,,1,1.0,,,,,3.0,,TO_BE_DONE_UP,antwerpen,antwerpen
11159815,schaarbeek,1030,,,APARTMENT,APARTMENT,340000.0,BUY_REGULAR,,100.0,INSTALLED,1.0,,0,,,,,,2.0,,TO_BE_DONE_UP,schaarbeek,brussel
11162189,knokke-heist,8300,,,APARTMENT,APARTMENT,675000.0,BUY_REGULAR,,90.0,HYPER_EQUIPPED,1.0,0.0,0,1.0,,,,,2.0,0.0,JUST_RENOVATED,knokke-heist,west-vlaanderen
10357571,eernegem,8480,51.1294295,3.0247358,APARTMENT,APARTMENT,282384.0,BUY_REGULAR,2.0,114.0,,,,0,,,,,,,,GOOD,ichtegem,west-vlaanderen
10981993,sint-lambrechts-woluwe,1200,50.8498081,4.4308017,APARTMENT,APARTMENT,425000.0,BUY_REGULAR,,98.0,HYPER_EQUIPPED,1.0,0.0,0,1.0,16.0,,,,,0.0,AS_NEW,sint-lambrechts-woluwe,brussel
11014622,evere,1140,50.8789854,4.3924799,APARTMENT,APARTMENT,399000.0,BUY_REGULAR,,85.0,,,0.0,0,1.0,6.0,,,,2.0,,AS_NEW,evere,brussel
11156073,borgerhout,2140,51.20883,4.4482865,APARTMENT,APARTMENT,190000.0,BUY_REGULAR,,94.0,,,,1,1.0,6.0,,,,,,,antwerpen,antwerpen
10437960,anderlecht,1070,50.8195132,4.2863533,APARTMENT,APARTMENT,199000.0,BUY_REGULAR,,60.0,HYPER_EQUIPPED,1.0,0.0,0,1.0,3.0,,,,2.0,0.0,AS_NEW,anderlecht,brussel
11128597,neupré,4120,50.5407108,5.491515,APARTMENT,APARTMENT,279000.0,BUY_REGULAR,,127.0,INSTALLED,1.0,1.0,0,,,,,,2.0,0.0,GOOD,neupré,luik
11060147,laeken,1020,50.9002246,4.358453,APARTMENT,APARTMENT,169000.0,BUY_REGULAR,,65.0,INSTALLED,1.0,0.0,0,1.0,12.0,,,,2.0,,GOOD,brussel,brussel
10891420,tervuren,3080,50.823293,4.5060298,APARTMENT,PENTHOUSE,849000.0,BUY_REGULAR,,113.0,USA_HYPER_EQUIPPED,1.0,0.0,0,1.0,61.0,,,,4.0,0.0,AS_NEW,tervuren,vlaams-brabant
10482935,aalst,9300,50.9395078,4.0214055,APARTMENT,APARTMENT,280000.0,BUY_REGULAR,,160.0,INSTALLED,1.0,,1,1.0,10.0,,,,3.0,,GOOD,aalst,oost-vlaanderen
11149067,sint denijs westrem,9051,51.0235853,3.6949472,APARTMENT,SERVICE_FLAT,165000.0,BUY_REGULAR,,93.0,HYPER_EQUIPPED,1.0,0.0,0,1.0,11.0,,,,2.0,1.0,GOOD,gent,oost-vlaanderen
11116594,de haan,8420,51.2774146,3.0378853,APARTMENT,APARTMENT,475000.0,BUY_REGULAR,1.0,81.0,,,,0,,,,,,,,GOOD,de haan,west-vlaanderen
11049283,lokeren,9160,51.1030017,4.0000797,APARTMENT,APARTMENT,139000.0,BUY_REGULAR,,80.0,,,,0,,,,,,2.0,,GOOD,lokeren,oost-vlaanderen
11142220,sinaai,9112,,,APARTMENT,APARTMENT,434500.0,BUY_REGULAR,,160.0,INSTALLED,1.0,,1,1.0,13.0,1.0,26.0,,2.0,,AS_NEW,sint-niklaas,oost-vlaanderen
11086763,ukkel,1180,50.7967595,4.3748709,APARTMENT,APARTMENT,299000.0,BUY_REGULAR,,85.0,INSTALLED,1.0,0.0,0,1.0,2.0,,,,3.0,,GOOD,ukkel,brussel
11151513,gelrode,3200,50.9645256,4.8008072,APARTMENT,APARTMENT,337900.0,BUY_REGULAR,,101.0,HYPER_EQUIPPED,1.0,,1,1.0,8.0,,,,4.0,,,aarschot,vlaams-brabant
11149367,leuven,3000,50.8786477,4.7024105,APARTMENT,KOT,215000.0,BUY_REGULAR,,16.0,,,1.0,0,1.0,,,,,2.0,0.0,AS_NEW,leuven,vlaams-brabant
11153571,haacht,3150,50.9755876,4.630736,APARTMENT,PENTHOUSE,599000.0,BUY_REGULAR,,132.0,,,0.0,0,1.0,27.0,,,,,,AS_NEW,haacht,vlaams-brabant
11061386,la louvière,7100,50.4790706,4.2023599,APARTMENT,APARTMENT,149000.0,BUY_REGULAR,,105.0,INSTALLED,1.0,0.0,0,1.0,3.0,,,,3.0,0.0,TO_RENOVATE,la louvière,henegouwen
10840926,sint-jans-molenbeek,1080,50.8601507,4.318858,APARTMENT,APARTMENT,179000.0,BUY_REGULAR,,55.0,SEMI_EQUIPPED,1.0,,1,1.0,5.0,,,,2.0,,,sint-jans-molenbeek,brussel
11148916,merchtem,1785,50.9583106,4.2292839,APARTMENT,APARTMENT,285000.0,BUY_REGULAR,,92.0,INSTALLED,1.0,0.0,0,1.0,7.0,,,,2.0,0.0,GOOD,merchtem,vlaams-brabant
10465431,sint-denijs-westrem,9051,51.0232446,3.697362,APARTMENT,APARTMENT,125000.0,BUY_REGULAR,,70.0,NOT_INSTALLED,1.0,,0,,,,,,2.0,,TO_BE_DONE_UP,gent,oost-vlaanderen
11145376,forêt,4870,,,APARTMENT,APARTMENT,250000.0,BUY_REGULAR,,84.0,INSTALLED,1.0,,1,1.0,3.0,,,,4.0,,,trooz,luik
11162176,waterloo,1410,50.6916817,4.400597,APARTMENT,APARTMENT,395000.0,BUY_REGULAR,,142.0,,,,0,1.0,44.0,,,,2.0,,GOOD,waterloo,waals-brabant
10722594,gerpinnes,6280,50.3399659,4.4932711,APARTMENT,APARTMENT,296000.0,BUY_REGULAR,,130.0,HYPER_EQUIPPED,1.0,0.0,0,1.0,,,,,,0.0,AS_NEW,gerpinnes,henegouwen
11161630,turnhout,2300,51.3168203,4.9434178,APARTMENT,APARTMENT,232900.0,BUY_REGULAR,,65.0,INSTALLED,1.0,,1,1.0,17.0,,,,2.0,,,turnhout,antwerpen
10749966,gent,9000,51.0408152,3.7410737,APARTMENT,APARTMENT,364500.0,BUY_REGULAR,10.0,78.0,,,,0,1.0,27.0,,,,,,GOOD,gent,oost-vlaanderen
10835469,ieper,8900,50.8484204,2.8844471,APARTMENT,APARTMENT,342500.0,BUY_REGULAR,10.0,104.0,,,,0,1.0,17.0,,,,,,,ieper,west-vlaanderen
10922994,oosteeklo,9968,51.1915457,3.6919144,APARTMENT,APARTMENT,275000.0,BUY_REGULAR,,86.0,INSTALLED,1.0,0.0,0,1.0,7.0,1.0,,,,0.0,AS_NEW,assenede,oost-vlaanderen
11147420,montegnée,4420,50.6419582,5.5208475,APARTMENT,APARTMENT,204303.0,BUY_REGULAR,,80.0,INSTALLED,1.0,,1,1.0,5.0,,,,2.0,,AS_NEW,saint-nicolas,luik
11156261,deurne,2100,51.2042807,4.4585864,APARTMENT,APARTMENT,219000.0,BUY_REGULAR,,59.0,INSTALLED,1.0,,1,,,,,,2.0,,JUST_RENOVATED,antwerpen,antwerpen
11129024,kortrijk,8500,50.8180037,3.2796064,APARTMENT,APARTMENT,268000.0,BUY_REGULAR,,105.0,INSTALLED,1.0,,1,1.0,,,,,,,,kortrijk,west-vlaanderen
11015710,izegem,8870,50.921599,3.2197432,APARTMENT,APARTMENT,269000.0,BUY_REGULAR,11.0,106.0,INSTALLED,1.0,,0,1.0,,,,,,,GOOD,izegem,west-vlaanderen
11154874,vorst,1190,,,APARTMENT,APARTMENT,340000.0,BUY_REGULAR,,95.0,INSTALLED,1.0,,0,1.0,9.0,,,,3.0,,GOOD,vorst,brussel
10838321,waver,1300,,,APARTMENT,APARTMENT,295000.0,BUY_REGULAR,,107.0,INSTALLED,1.0,0.0,0,1.0,15.0,,,,,0.0,GOOD,wavre,waals-brabant
11143599,deurne (2100),2100,51.2303681,4.4764142,APARTMENT,APARTMENT,195000.0,BUY_REGULAR,9.0,82.0,INSTALLED,1.0,,0,,,,,,,,,antwerpen,antwerpen
11155036,gent,9000,51.0266866,3.7335986,APARTMENT,APARTMENT,339000.0,BUY_REGULAR,,87.0,INSTALLED,1.0,,1,1.0,,,,,2.0,,JUST_RENOVATED,gent,oost-vlaanderen
11046816,mortsel,2640,51.1759113,4.4373519,APARTMENT,APARTMENT,224000.0,BUY_REGULAR,,84.0,SEMI_EQUIPPED,1.0,,1,1.0,20.0,,,,2.0,,JUST_RENOVATED,mortsel,antwerpen
11156048,antwerpen,2000,51.224428,4.4063248,APARTMENT,APARTMENT,189000.0,BUY_REGULAR,,64.0,SEMI_EQUIPPED,1.0,,1,,,,,,2.0,,TO_BE_DONE_UP,antwerpen,antwerpen
11153301,de haan,8420,51.2698051,3.029855,APARTMENT,APARTMENT,1550000.0,BUY_REGULAR,,242.0,USA_HYPER_EQUIPPED,1.0,,1,,,,,,2.0,,,de haan,west-vlaanderen
11158972,sint-jans-molenbeek,1080,50.850681,4.3068468,APARTMENT,APARTMENT,275000.0,BUY_REGULAR,,93.0,,1.0,0.0,0,1.0,8.0,,,,2.0,0.0,GOOD,sint-jans-molenbeek,brussel
11158135,schaarbeek,1030,,,APARTMENT,APARTMENT,320000.0,BUY_REGULAR,,107.0,INSTALLED,1.0,0.0,0,,,,,,4.0,,,schaarbeek,brussel
11105057,zelzate,9060,51.2011989,3.8065121,APARTMENT,APARTMENT,259000.0,BUY_REGULAR,,154.0,INSTALLED,1.0,,1,,,,,,2.0,,JUST_RENOVATED,zelzate,oost-vlaanderen
11067649,elsene,1050,,,APARTMENT,PENTHOUSE,1250000.0,BUY_REGULAR,4.0,208.0,HYPER_EQUIPPED,1.0,0.0,0,1.0,14.0,,,,2.0,0.0,AS_NEW,elsene,brussel
11125251,boom,2850,51.0892968,4.3666212,APARTMENT,APARTMENT,225000.0,BUY_REGULAR,9.0,110.0,INSTALLED,1.0,,0,,,,,,,,,boom,antwerpen
10631756,ukkel,1180,50.8023689,4.350595,APARTMENT,PENTHOUSE,595000.0,BUY_REGULAR,,159.0,HYPER_EQUIPPED,1.0,0.0,0,1.0,,,,,2.0,0.0,GOOD,ukkel,brussel
11112984,knokke-heist,8300,51.3424502,3.288149,APARTMENT,APARTMENT,489000.0,BUY_REGULAR,2.0,107.0,,1.0,,0,,,,,,2.0,,GOOD,knokke-heist,west-vlaanderen
11073095,brussels,1000,,,APARTMENT,APARTMENT,460000.0,BUY_REGULAR,,157.0,USA_HYPER_EQUIPPED,1.0,0.0,0,1.0,4.0,,,,2.0,0.0,AS_NEW,brussel,brussel
10722269,antwerpen,2000,51.2302435,4.4184699,APARTMENT,PENTHOUSE,1395000.0,BUY_REGULAR,4.0,180.0,USA_HYPER_EQUIPPED,1.0,,0,1.0,61.0,,,,3.0,,AS_NEW,antwerpen,antwerpen
11077410,boom,2850,51.0920873,4.3569631,APARTMENT,APARTMENT,295000.0,BUY_REGULAR,,90.0,HYPER_EQUIPPED,1.0,,0,1.0,,,,,3.0,,,boom,antwerpen
11113543,marche-en-famenne,6900,50.221239,5.3452772,APARTMENT,APARTMENT,286000.0,BUY_REGULAR,3.0,100.0,,,,0,,,,,,,,GOOD,marche-en-famenne,luxemburg
11058168,luik,4020,50.6433942,5.5856429,APARTMENT,APARTMENT,149000.0,BUY_REGULAR,,70.0,USA_INSTALLED,1.0,0.0,0,,,,,,2.0,0.0,GOOD,liège,luik
11144971,anderlecht,1070,,,APARTMENT,APARTMENT,159000.0,BUY_REGULAR,,71.0,,,0.0,0,1.0,,1.0,1.0,,4.0,,,anderlecht,brussel
10712267,sint-idesbald,8670,51.1108402,2.6166466,APARTMENT,APARTMENT,325000.0,BUY_REGULAR,2.0,52.0,,,,0,1.0,11.0,,,,,,GOOD,koksijde,west-vlaanderen
11142188,jemeppe-sur-meuse,4101,50.6178992,5.5067323,APARTMENT,APARTMENT,135000.0,BUY_REGULAR,,81.0,,1.0,0.0,0,1.0,3.0,,,,2.0,0.0,,seraing,luik
11056192,boezinge,8904,50.8979536,2.8529927,APARTMENT,GROUND_FLOOR,175000.0,BUY_REGULAR,,58.0,INSTALLED,1.0,,1,1.0,,,,,2.0,,GOOD,ieper,west-vlaanderen
11163258,blankenberge,8370,51.3178815,3.1355392,APARTMENT,APARTMENT,265000.0,BUY_REGULAR,1.0,50.0,,,,0,,,,,,,,GOOD,blankenberge,west-vlaanderen
11157531,huy,4500,,,APARTMENT,DUPLEX,195000.0,BUY_REGULAR,,85.0,INSTALLED,1.0,,0,1.0,,,,,2.0,,JUST_RENOVATED,huy,luik
11134994,gent,9000,51.0780003,3.697916,APARTMENT,APARTMENT,355000.0,BUY_REGULAR,12.0,100.0,INSTALLED,1.0,,0,,,,,,,,,gent,oost-vlaanderen
11140876,gavere,9890,50.9284071,3.679605,APARTMENT,APARTMENT,279200.0,BUY_REGULAR,,76.0,HYPER_EQUIPPED,1.0,0.0,0,1.0,11.0,,,,4.0,0.0,AS_NEW,gavere,oost-vlaanderen
10949437,etterbeek,1040,50.8287886,4.3819533,APARTMENT,FLAT_STUDIO,189000.0,BUY_REGULAR,,48.0,INSTALLED,1.0,0.0,0,1.0,6.0,,,,2.0,0.0,GOOD,etterbeek,brussel
11129749,wenduine,8420,51.2986986,3.0777759,APARTMENT,APARTMENT,169000.0,BUY_REGULAR,,71.0,HYPER_EQUIPPED,1.0,1.0,0,,,,,,2.0,0.0,,de haan,west-vlaanderen
11128851,willebroek,2830,51.0812804,4.3656003,APARTMENT,APARTMENT,217000.0,BUY_REGULAR,,60.0,INSTALLED,1.0,,0,1.0,14.0,,,,2.0,,GOOD,willebroek,antwerpen
10907064,bierbeek,3360,50.8558443,4.7765579,APARTMENT,APARTMENT,640360.0,BUY_REGULAR,,118.0,HYPER_EQUIPPED,1.0,0.0,0,1.0,15.0,,,,4.0,1.0,AS_NEW,bierbeek,vlaams-brabant
11093032,knokke-heist,8300,51.3556366,3.3032973,APARTMENT,APARTMENT,1099000.0,BUY_REGULAR,9.0,84.0,HYPER_EQUIPPED,1.0,,0,,,,,,2.0,,GOOD,knokke-heist,west-vlaanderen
11097832,deinze,9800,50.9810659,3.5338592,APARTMENT,APARTMENT,239000.0,BUY_REGULAR,9.0,115.0,,,,0,1.0,,,,,,,GOOD,deinze,oost-vlaanderen
11029960,knokke-heist,8300,51.3537676,3.298001,APARTMENT,APARTMENT,1395000.0,BUY_REGULAR,,100.0,,,0.0,0,1.0,25.0,,,,3.0,,AS_NEW,knokke-heist,west-vlaanderen
11061054,jette,1090,50.8795637,4.3221212,APARTMENT,APARTMENT,265000.0,BUY_REGULAR,,100.0,,1.0,0.0,0,1.0,15.0,,,,3.0,0.0,,jette,brussel
10985415,waterloo,1410,50.7116786,4.3990404,APARTMENT,APARTMENT,297000.0,BUY_REGULAR,,58.0,USA_HYPER_EQUIPPED,1.0,0.0,0,1.0,7.0,,,,4.0,0.0,AS_NEW,waterloo,waals-brabant
11121935,koekelare,8680,51.0924423,2.9797859,APARTMENT,APARTMENT,129000.0,BUY_REGULAR,6.0,83.0,INSTALLED,1.0,,0,,,,,,,,,koekelare,west-vlaanderen
11156569,gent,9051,51.0274241,3.696983,APARTMENT,APARTMENT,320000.0,BUY_REGULAR,,83.0,USA_HYPER_EQUIPPED,1.0,0.0,0,1.0,15.0,,,,4.0,0.0,AS_NEW,gent,oost-vlaanderen
11053348,gent,9000,51.0304683,3.6900695,APARTMENT,APARTMENT,360000.0,BUY_REGULAR,11.0,97.0,,,,0,,,,,,,,GOOD,gent,oost-vlaanderen
11046242,wilrijk,2610,51.1762958,4.4254707,APARTMENT,APARTMENT,249000.0,BUY_REGULAR,,97.0,INSTALLED,1.0,,0,1.0,,,,,2.0,,GOOD,antwerpen,antwerpen
11149225,gembloux,5030,,,APARTMENT,APARTMENT,340455.0,BUY_REGULAR,,91.0,,,,0,1.0,8.0,,,,,,AS_NEW,gembloux,namen
11162305,brussel,1000,,,APARTMENT,APARTMENT,745000.0,BUY_REGULAR,,180.0,USA_INSTALLED,1.0,,0,1.0,,,,,2.0,0.0,JUST_RENOVATED,brussel,brussel
11149711,schaarbeek,1030,,,APARTMENT,APARTMENT,349000.0,BUY_REGULAR,,100.0,SEMI_EQUIPPED,1.0,,0,1.0,6.0,,,,2.0,,GOOD,schaarbeek,brussel
11079961,berchem,2600,51.1853172,4.4404271,APARTMENT,APARTMENT,210000.0,BUY_REGULAR,,102.0,SEMI_EQUIPPED,1.0,,1,1.0,20.0,,,,,,TO_BE_DONE_UP,antwerpen,antwerpen
10616307,elsene,1050,50.8215121,4.3880455,APARTMENT,APARTMENT,220000.0,BUY_REGULAR,,80.0,INSTALLED,1.0,0.0,0,,,,,,2.0,0.0,GOOD,elsene,brussel
11145475,de haan,8420,51.2571575,2.9994248,APARTMENT,APARTMENT,77500.0,BUY_REGULAR,,35.0,,,,0,,,,,,,,,de haan,west-vlaanderen
11024043,deinze,9800,50.9879204,3.5244822,APARTMENT,APARTMENT,335000.0,BUY_REGULAR,10.0,93.0,INSTALLED,1.0,,0,1.0,14.0,,,,,,GOOD,deinze,oost-vlaanderen
11149496,luik,4000,,,APARTMENT,PENTHOUSE,325000.0,BUY_REGULAR,,145.0,USA_HYPER_EQUIPPED,1.0,1.0,0,1.0,67.0,1.0,10000.0,,3.0,0.0,AS_NEW,liège,luik
10127711,eeklo,9900,51.1826965,3.5547231,APARTMENT,SERVICE_FLAT,245000.0,BUY_REGULAR,13.0,75.0,HYPER_EQUIPPED,1.0,,0,1.0,,,,,,,GOOD,eeklo,oost-vlaanderen
11053975,geraardsbergen,9500,50.7727413,3.8801389,APARTMENT,APARTMENT,260000.0,BUY_REGULAR,,98.0,,,,0,1.0,10.0,,,,2.0,0.0,AS_NEW,geraardsbergen,oost-vlaanderen
11147906,vorst,1190,50.8237758,4.3332787,APARTMENT,APARTMENT,245000.0,BUY_REGULAR,,65.0,SEMI_EQUIPPED,1.0,0.0,0,,,,,,2.0,0.0,GOOD,vorst,brussel
11161166,deinze,9800,,,APARTMENT,APARTMENT,351761.0,BUY_REGULAR,,123.0,INSTALLED,1.0,,1,1.0,18.0,1.0,,,2.0,,,deinze,oost-vlaanderen
8153955,oostende,8400,51.2305567,2.9148377,APARTMENT,APARTMENT,210000.0,BUY_REGULAR,,80.0,INSTALLED,1.0,0.0,0,1.0,5.0,,,,,0.0,AS_NEW,oostende,west-vlaanderen
11094263,ukkel,1180,50.7892358,4.3856077,APARTMENT,APARTMENT,980000.0,BUY_REGULAR,,203.0,HYPER_EQUIPPED,1.0,0.0,0,1.0,15.0,,,,2.0,0.0,GOOD,ukkel,brussel
10875335,de panne,8660,51.099067,2.5959008,APARTMENT,APARTMENT,185000.0,BUY_REGULAR,3.0,69.0,,,,0,,,,,,,,GOOD,de panne,west-vlaanderen
10876991,sint-denijs-westrem,9051,51.0274241,3.696983,APARTMENT,APARTMENT,320000.0,BUY_REGULAR,,85.0,HYPER_EQUIPPED,1.0,0.0,0,1.0,13.0,1.0,,,,0.0,,gent,oost-vlaanderen
11079879,wenduine,8420,51.303651,3.0851446,APARTMENT,APARTMENT,279000.0,BUY_REGULAR,7.0,73.0,INSTALLED,1.0,,0,,,,,,,,TO_BE_DONE_UP,de haan,west-vlaanderen
11149896,gent,9000,51.0527205,3.7329576,APARTMENT,FLAT_STUDIO,142500.0,BUY_REGULAR,,19.0,INSTALLED,1.0,1.0,0,,,,,,2.0,0.0,AS_NEW,gent,oost-vlaanderen
11054291,woluwé-saint-lambert,1200,50.8394709,4.4117947,APARTMENT,APARTMENT,498000.0,BUY_REGULAR,,150.0,SEMI_EQUIPPED,1.0,,1,1.0,19.0,1.0,50.0,,,,TO_BE_DONE_UP,sint-lambrechts-woluwe,brussel
11076542,knokke-heist,8300,51.3448986,3.2859903,APARTMENT,APARTMENT,645000.0,BUY_REGULAR,1.0,124.0,,,,0,1.0,,,,,,,GOOD,knokke-heist,west-vlaanderen
11146129,antwerpen,2140,51.2182205,4.4462601,APARTMENT,APARTMENT,235000.0,BUY_REGULAR,,78.0,INSTALLED,1.0,0.0,0,1.0,12.0,,,,2.0,0.0,,antwerpen,antwerpen
11120265,deurne,2100,51.2290344,4.480232,APARTMENT,APARTMENT,184900.0,BUY_REGULAR,,88.0,,,0.0,0,1.0,,,,,2.0,0.0,,antwerpen,antwerpen
10860437,nieuwpoort,8620,,,APARTMENT,APARTMENT,359000.0,BUY_REGULAR,7.0,72.0,INSTALLED,1.0,,0,,,,,,,,GOOD,nieuwpoort,west-vlaanderen
11148762,deurne,2100,51.2279481,4.4710569,APARTMENT,APARTMENT,174500.0,BUY_REGULAR,,67.0,INSTALLED,1.0,,1,,,,,,3.0,,GOOD,antwerpen,antwerpen
10605151,chapelle-lez-herlaimont,7160,,,APARTMENT,APARTMENT,215000.0,BUY_REGULAR,,90.0,USA_INSTALLED,1.0,0.0,0,1.0,7.0,,,,2.0,0.0,AS_NEW,chapelle-lez-herlaimont,henegouwen
11040321,evere,1140,50.8787079,4.4058778,APARTMENT,FLAT_STUDIO,125000.0,BUY_REGULAR,,37.0,SEMI_EQUIPPED,1.0,0.0,0,1.0,5.0,,,,2.0,0.0,TO_BE_DONE_UP,evere,brussel
11121461,st-pieters-woluwe,1150,50.8358174,4.4133345,APARTMENT,APARTMENT,681000.0,BUY_REGULAR,,115.0,USA_HYPER_EQUIPPED,1.0,0.0,0,1.0,15.0,,,,2.0,0.0,AS_NEW,sint-pieters-woluwe,brussel
11151171,deurne,2100,51.225317,4.4786094,APARTMENT,APARTMENT,89000.0,PUBLIC_SALE,,66.0,,,,0,1.0,,,,,3.0,,TO_RENOVATE,antwerpen,antwerpen
10898614,etterbeek,1040,50.8389025,4.3986498,APARTMENT,APARTMENT,1150000.0,BUY_REGULAR,4.0,201.0,USA_UNINSTALLED,1.0,0.0,0,1.0,25.0,,,,2.0,0.0,,etterbeek,brussel
11136077,gent,9000,51.0510914,3.7343393,APARTMENT,APARTMENT,290000.0,PUBLIC_SALE,,99.0,,,,0,1.0,,,,,,,,gent,oost-vlaanderen
11108334,elsene,1050,50.8327008,4.364577,APARTMENT,PENTHOUSE,560000.0,BUY_REGULAR,,166.0,USA_HYPER_EQUIPPED,1.0,0.0,0,1.0,2.0,,,,4.0,0.0,GOOD,elsene,brussel
11147014,de panne,8660,51.103948,2.5958804,APARTMENT,APARTMENT,135000.0,BUY_REGULAR,,49.0,,,0.0,0,,,,,,2.0,0.0,,de panne,west-vlaanderen
11158514,ruiselede,8755,51.0417257,3.396287,APARTMENT,DUPLEX,297000.0,BUY_REGULAR,13.0,94.0,HYPER_EQUIPPED,1.0,,0,,,,,,,,,ruiselede,west-vlaanderen
10979358,knokke-heist,8300,,,APARTMENT,APARTMENT,835000.0,BUY_REGULAR,,105.0,USA_HYPER_EQUIPPED,1.0,0.0,0,1.0,4.0,,,,2.0,0.0,JUST_RENOVATED,knokke-heist,west-vlaanderen
11097635,lokeren,9160,51.1053128,3.9838078,APARTMENT,GROUND_FLOOR,249000.0,BUY_REGULAR,1.0,130.0,,,,0,,,,,,,,GOOD,lokeren,oost-vlaanderen
11057798,vilvoorde,1800,50.9262731,4.4240836,APARTMENT,APARTMENT,215000.0,BUY_REGULAR,,96.0,HYPER_EQUIPPED,1.0,0.0,0,1.0,37.0,,,,2.0,0.0,,vilvoorde,vlaams-brabant
11095141,antwerpen,2060,51.2249059,4.4386293,APARTMENT,APARTMENT,195000.0,BUY_REGULAR,,60.0,INSTALLED,1.0,,0,,,,,,3.0,,JUST_RENOVATED,antwerpen,antwerpen
10972932,evere,1140,50.8789854,4.3924799,APARTMENT,FLAT_STUDIO,269000.0,BUY_REGULAR,,55.0,USA_HYPER_EQUIPPED,1.0,0.0,0,1.0,7.0,,,,3.0,0.0,,evere,brussel
10993098,knokke-heist,8300,,,APARTMENT,APARTMENT,1295000.0,BUY_REGULAR,4.0,128.0,HYPER_EQUIPPED,1.0,,0,1.0,13.0,,,,2.0,0.0,AS_NEW,knokke-heist,west-vlaanderen
11124299,vilvoorde,1800,50.9251342,4.4269193,APARTMENT,APARTMENT,229000.0,BUY_REGULAR,,75.0,HYPER_EQUIPPED,1.0,0.0,0,,,,,,2.0,0.0,,vilvoorde,vlaams-brabant
11032079,aalst,9300,50.9242915,4.031962,APARTMENT,APARTMENT,319000.0,BUY_REGULAR,2.0,114.0,USA_INSTALLED,1.0,,0,1.0,19.0,,,,2.0,0.0,AS_NEW,aalst,oost-vlaanderen
11148567,nieuwpoort,8620,,,APARTMENT,APARTMENT,185000.0,BUY_REGULAR,6.0,46.0,,,,0,,,,,,,,,nieuwpoort,west-vlaanderen
11147079,middelkerke,8430,51.1859609,2.8115719,APARTMENT,APARTMENT,325000.0,BUY_REGULAR,,70.0,NOT_INSTALLED,1.0,1.0,0,1.0,,,,,,,,middelkerke,west-vlaanderen
11126004,knokke,8300,,,APARTMENT,APARTMENT,695000.0,BUY_REGULAR,,75.0,HYPER_EQUIPPED,1.0,1.0,0,1.0,100.0,1.0,80.0,,2.0,,AS_NEW,knokke-heist,west-vlaanderen
11161319,mechelen,2800,51.0240088,4.468717,APARTMENT,APARTMENT,681040.0,BUY_REGULAR,7.0,156.0,,,,0,1.0,24.0,,,,,,,mechelen,antwerpen
11150640,brasschaat,2930,51.3033201,4.4823818,APARTMENT,GROUND_FLOOR,193000.0,BUY_REGULAR,,55.0,INSTALLED,1.0,,1,1.0,25.0,,,,3.0,,TO_BE_DONE_UP,brasschaat,antwerpen
11119925,bilzen,3740,50.8608191,5.5753528,APARTMENT,APARTMENT,275000.0,BUY_REGULAR,13.0,137.0,INSTALLED,1.0,,0,1.0,14.0,,,,,,,bilzen,limburg
11139617,ukkel,1180,50.8035131,4.3411396,APARTMENT,APARTMENT,489000.0,BUY_REGULAR,,128.0,HYPER_EQUIPPED,1.0,0.0,0,1.0,3.0,,,,2.0,0.0,JUST_RENOVATED,ukkel,brussel
11157721,turnhout,2300,51.3141828,4.9586816,APARTMENT,APARTMENT,950000.0,BUY_REGULAR,,237.0,HYPER_EQUIPPED,1.0,,1,1.0,,,,,4.0,,,turnhout,antwerpen
10984051,antwerpen,2018,51.2196655,4.4169424,APARTMENT,APARTMENT,175000.0,BUY_REGULAR,,40.0,INSTALLED,1.0,,1,,,,,,2.0,,JUST_RENOVATED,antwerpen,antwerpen
10941973,kluisbergen,9690,50.7885005,3.5054214,APARTMENT,APARTMENT,149000.0,BUY_REGULAR,11.0,108.0,,1.0,,0,,,,,,2.0,,,kluisbergen,oost-vlaanderen
10914604,waver,1300,,,APARTMENT,APARTMENT,210000.0,BUY_REGULAR,,73.0,SEMI_EQUIPPED,1.0,0.0,0,1.0,8.0,,,,3.0,0.0,GOOD,wavre,waals-brabant
11138115,antwerpen,2000,,,APARTMENT,DUPLEX,429000.0,BUY_REGULAR,,96.0,HYPER_EQUIPPED,1.0,,0,1.0,6.0,,,,3.0,0.0,AS_NEW,antwerpen,antwerpen
11040409,knokke-heist,8300,,,APARTMENT,PENTHOUSE,995000.0,BUY_REGULAR,3.0,70.0,USA_HYPER_EQUIPPED,1.0,0.0,0,1.0,,,,,2.0,0.0,JUST_RENOVATED,knokke-heist,west-vlaanderen
11112435,schilde,2970,51.262389,4.550774,APARTMENT,DUPLEX,454000.0,BUY_REGULAR,,173.0,,,,0,1.0,28.0,,,,,,GOOD,schilde,antwerpen
11143837,liedekerke,1770,50.8714373,4.0854996,APARTMENT,DUPLEX,319000.0,BUY_REGULAR,,100.0,USA_HYPER_EQUIPPED,1.0,0.0,0,1.0,3.0,,,,,0.0,AS_NEW,liedekerke,vlaams-brabant
11067820,waterloo,1410,,,APARTMENT,APARTMENT,495000.0,BUY_REGULAR,,116.0,USA_HYPER_EQUIPPED,1.0,0.0,0,1.0,12.0,,,,2.0,0.0,AS_NEW,waterloo,waals-brabant
10637905,waterloo,1410,50.704429,4.4019369,APARTMENT,APARTMENT,237500.0,BUY_REGULAR,,92.0,USA_INSTALLED,1.0,,0,1.0,40.0,,,,2.0,0.0,AS_NEW,waterloo,waals-brabant
11152072,gent,9040,51.0620199,3.752431,APARTMENT,APARTMENT,249000.0,BUY_REGULAR,1.0,87.0,,,,0,,,,,,,,GOOD,gent,oost-vlaanderen
11108221,vorst,1190,50.8145302,4.3197078,APARTMENT,APARTMENT,412000.0,BUY_REGULAR,,118.0,USA_HYPER_EQUIPPED,1.0,,0,1.0,12.0,1.0,67.0,,2.0,0.0,AS_NEW,vorst,brussel
11028880,knokke-heist,8300,,,APARTMENT,APARTMENT,1250000.0,BUY_REGULAR,4.0,120.0,USA_HYPER_EQUIPPED,1.0,0.0,0,1.0,,,,,,0.0,JUST_RENOVATED,knokke-heist,west-vlaanderen
11038612,antwerpen merksem,2170,51.2458839,4.4309891,APARTMENT,APARTMENT,175000.0,BUY_REGULAR,,98.0,INSTALLED,1.0,0.0,0,1.0,9.0,,,,2.0,0.0,TO_RENOVATE,antwerpen,antwerpen
10992127,oostende,8400,51.2360046,2.9406613,APARTMENT,APARTMENT,115000.0,BUY_REGULAR,1.0,75.0,,,,0,,,,,,,,GOOD,oostende,west-vlaanderen
11157199,gent,9040,51.0656297,3.7636912,APARTMENT,APARTMENT,368000.0,BUY_REGULAR,1.0,88.0,,,,0,1.0,13.0,,,,,,,gent,oost-vlaanderen
11022467,kortessem,3720,50.8556003,5.385215,APARTMENT,APARTMENT,311556.0,BUY_REGULAR,1.0,87.0,,,,0,1.0,24.0,1.0,24.0,,3.0,,GOOD,kortessem,limburg
10985414,waterloo,1410,50.7116786,4.3990404,APARTMENT,APARTMENT,530000.0,BUY_REGULAR,,117.0,USA_HYPER_EQUIPPED,1.0,0.0,0,1.0,15.0,,,,4.0,0.0,AS_NEW,waterloo,waals-brabant
11153495,leuven,3000,50.8878729,4.6918041,APARTMENT,FLAT_STUDIO,155000.0,BUY_REGULAR,,16.0,INSTALLED,1.0,0.0,0,1.0,4.0,,,,4.0,,AS_NEW,leuven,vlaams-brabant
11105791,oudenaarde,9700,50.85632,3.6314364,APARTMENT,APARTMENT,155000.0,BUY_REGULAR,10.0,97.0,,1.0,,0,,,,,,2.0,,,oudenaarde,oost-vlaanderen
11023221,antwerpen,2000,51.2138647,4.4075873,APARTMENT,PENTHOUSE,725000.0,BUY_REGULAR,,130.0,HYPER_EQUIPPED,1.0,0.0,0,1.0,30.0,,,,2.0,,AS_NEW,antwerpen,antwerpen
11161881,brussel,1000,50.8418692,4.3451372,APARTMENT,APARTMENT,345000.0,BUY_REGULAR,,124.0,HYPER_EQUIPPED,1.0,0.0,0,,,,,,2.0,,GOOD,brussel,brussel
10667148,beveren,9120,51.2158653,4.2519533,APARTMENT,APARTMENT,325000.0,BUY_REGULAR,,220.0,,1.0,0.0,0,1.0,12.0,,,,2.0,0.0,,beveren-waas,oost-vlaanderen
11163099,antwerpen,2600,51.1822685,4.4308904,APARTMENT,APARTMENT,324900.0,BUY_REGULAR,,97.0,HYPER_EQUIPPED,1.0,,0,1.0,,,,,2.0,,AS_NEW,antwerpen,antwerpen
11159706,bruxelles  2,1020,50.871909,4.3454283,APARTMENT,APARTMENT,319000.0,BUY_REGULAR,,115.0,INSTALLED,1.0,0.0,1,1.0,9.0,1.0,80.0,,2.0,,,brussel,brussel
11044725,merksem,2170,51.2510102,4.4334756,APARTMENT,APARTMENT,225000.0,BUY_REGULAR,11.0,91.0,INSTALLED,1.0,,0,1.0,11.0,,,,,,,antwerpen,antwerpen
10921929,leuven,3000,50.8558443,4.7765579,APARTMENT,APARTMENT,504280.0,BUY_REGULAR,,96.0,HYPER_EQUIPPED,1.0,0.0,0,1.0,6.0,,,,4.0,1.0,AS_NEW,leuven,vlaams-brabant
11157822,lier,2500,51.1485487,4.5747829,APARTMENT,APARTMENT,235000.0,BUY_REGULAR,,79.0,INSTALLED,1.0,,1,,,1.0,,,2.0,,GOOD,lier,antwerpen
10982384,sint-gillis-waas,9170,51.222575,4.1215536,APARTMENT,APARTMENT,289000.0,BUY_REGULAR,,110.0,,,,0,,,,,,3.0,,GOOD,sint-gillis-waas,oost-vlaanderen
10888273,brussel,1000,,,APARTMENT,APARTMENT,1537000.0,BUY_REGULAR,3.0,160.0,,,0.0,0,1.0,91.0,,,,,0.0,AS_NEW,brussel,brussel
10877864,elsene,1050,50.8350429,4.3692915,APARTMENT,FLAT_STUDIO,125000.0,BUY_REGULAR,,30.0,,,0.0,0,,,,,,2.0,0.0,TO_RENOVATE,elsene,brussel
11147153,pelt,3910,51.2309435,5.4284663,APARTMENT,APARTMENT,289000.0,BUY_REGULAR,,97.0,,,0.0,0,,,,,,2.0,0.0,,pelt,limburg
11162350,dinant,5500,50.2655677,4.9208405,APARTMENT,APARTMENT,169000.0,BUY_REGULAR,,81.0,USA_SEMI_EQUIPPED,1.0,0.0,0,1.0,,,,,2.0,0.0,GOOD,dinant,namen
10920142,knokke-heist,8300,,,APARTMENT,APARTMENT,1250000.0,BUY_REGULAR,4.0,95.0,HYPER_EQUIPPED,1.0,1.0,0,1.0,,,,,3.0,0.0,AS_NEW,knokke-heist,west-vlaanderen
10965368,lievegem,9920,51.0953837,3.6087767,APARTMENT,DUPLEX,479000.0,BUY_REGULAR,,153.0,HYPER_EQUIPPED,1.0,0.0,0,1.0,23.0,,,,3.0,0.0,,lievegem,oost-vlaanderen
10963088,luik,4000,50.6264409,5.5727467,APARTMENT,APARTMENT,165000.0,BUY_REGULAR,,64.0,NOT_INSTALLED,1.0,0.0,0,,,,,,2.0,0.0,JUST_RENOVATED,liège,luik
11053905,edegem,2650,51.155253,4.459304,APARTMENT,APARTMENT,215000.0,BUY_REGULAR,,82.0,,,0.0,0,1.0,10.0,,,,3.0,,TO_BE_DONE_UP,edegem,antwerpen
11147008,sint-lambrechts-woluwe,1200,50.849049,4.4291383,APARTMENT,FLAT_STUDIO,155000.0,BUY_REGULAR,,22.0,,,1.0,0,,,,,,2.0,0.0,GOOD,sint-lambrechts-woluwe,brussel
10552467,zelzate,9060,51.1958036,3.7943113,APARTMENT,APARTMENT,169000.0,BUY_REGULAR,,90.0,,1.0,0.0,0,,,1.0,6.0,,2.0,0.0,TO_BE_DONE_UP,zelzate,oost-vlaanderen
11056557,aalst,9300,50.9263351,4.0696449,APARTMENT,DUPLEX,239000.0,BUY_REGULAR,1.0,95.0,INSTALLED,1.0,,0,1.0,4.0,,,,2.0,0.0,AS_NEW,aalst,oost-vlaanderen
10979997,oostkamp,8020,51.1429636,3.23084,APARTMENT,APARTMENT,189000.0,BUY_REGULAR,3.0,103.0,,,,0,,,,,,,,GOOD,oostkamp,west-vlaanderen
11136327,ombret-rawsa,4540,50.5442744,5.3382176,APARTMENT,APARTMENT,219000.0,BUY_REGULAR,,104.0,INSTALLED,1.0,,1,1.0,5.0,,,,4.0,,GOOD,amay,luik
11113463,marche-en-famenne,6900,50.2116298,5.3321921,APARTMENT,GROUND_FLOOR,280000.0,BUY_REGULAR,3.0,100.0,,1.0,,0,1.0,11.0,,,,,,GOOD,marche-en-famenne,luxemburg
11135062,lier,2500,51.0963249,4.6085763,APARTMENT,DUPLEX,395000.0,BUY_REGULAR,,135.0,HYPER_EQUIPPED,1.0,,0,1.0,,1.0,50.0,,2.0,0.0,AS_NEW,lier,antwerpen
11141803,duinbergen,8301,,,APARTMENT,APARTMENT,315000.0,BUY_REGULAR,7.0,70.0,INSTALLED,1.0,,0,1.0,20.0,,,,,,,knokke-heist,west-vlaanderen
10880168,turnhout,2300,51.3299293,4.937162,APARTMENT,APARTMENT,325000.0,BUY_REGULAR,,105.0,HYPER_EQUIPPED,1.0,,0,1.0,14.0,,,,3.0,,AS_NEW,turnhout,antwerpen
10997953,lebbeke,9280,51.0070047,4.1380995,APARTMENT,APARTMENT,215000.0,BUY_REGULAR,,89.0,USA_INSTALLED,1.0,,0,1.0,,,,,2.0,,GOOD,lebbeke,oost-vlaanderen
10941878,ukkel,1180,,,APARTMENT,APARTMENT,1280000.0,BUY_REGULAR,4.0,191.0,,,0.0,0,1.0,55.0,,,,3.0,0.0,TO_BE_DONE_UP,ukkel,brussel
11148926,liège grivegnée,4030,50.6281716,5.6082656,APARTMENT,FLAT_STUDIO,120000.0,BUY_REGULAR,,35.0,USA_SEMI_EQUIPPED,1.0,0.0,0,,,,,,2.0,0.0,AS_NEW,liège,luik
11066437,elsene,1050,,,APARTMENT,APARTMENT,795000.0,BUY_REGULAR,,231.0,HYPER_EQUIPPED,1.0,,0,1.0,6.0,,,,2.0,0.0,AS_NEW,elsene,brussel
11092064,willebroek,2830,51.0579312,4.3572704,APARTMENT,PENTHOUSE,385000.0,BUY_REGULAR,,126.0,INSTALLED,1.0,0.0,0,1.0,97.0,,,,3.0,0.0,AS_NEW,willebroek,antwerpen
11153278,heusden-zolder,3550,51.0373231,5.2996577,APARTMENT,APARTMENT,210000.0,BUY_REGULAR,,85.0,HYPER_EQUIPPED,1.0,0.0,0,1.0,15.0,,,,,,AS_NEW,heusden-zolder,limburg
10773375,knokke-heist,8300,51.3502131,3.2844035,APARTMENT,APARTMENT,750000.0,BUY_REGULAR,,93.0,USA_HYPER_EQUIPPED,1.0,,0,1.0,25.0,,,,2.0,0.0,AS_NEW,knokke-heist,west-vlaanderen
10961799,gistel,8470,51.1543484,2.964117,APARTMENT,APARTMENT,132500.0,BUY_REGULAR,3.0,42.0,,,,0,,,,,,3.0,,GOOD,gistel,west-vlaanderen
11127659,kortrijk,8500,50.8235916,3.264394,APARTMENT,APARTMENT,159000.0,BUY_REGULAR,,68.0,INSTALLED,1.0,,1,1.0,,,,,,,GOOD,kortrijk,west-vlaanderen
11137618,oudenaarde,9700,50.8551618,3.6085322,APARTMENT,APARTMENT,333300.0,BUY_REGULAR,11.0,102.0,,1.0,,0,1.0,8.0,,,,2.0,,,oudenaarde,oost-vlaanderen
11154570,roeselare,8800,50.9373932,3.1324996,APARTMENT,APARTMENT,685000.0,BUY_REGULAR,,170.0,HYPER_EQUIPPED,1.0,,0,1.0,24.0,,,,3.0,0.0,AS_NEW,roeselare,west-vlaanderen
10985391,merksem,2170,51.252924,4.4505443,APARTMENT,APARTMENT,245000.0,BUY_REGULAR,,74.0,HYPER_EQUIPPED,1.0,,0,1.0,14.0,,,,2.0,0.0,AS_NEW,antwerpen,antwerpen
11061538,tienen kumtich,3300,50.8230758,4.8825343,APARTMENT,DUPLEX,298000.0,BUY_REGULAR,,100.0,INSTALLED,1.0,,0,1.0,7.0,,,,3.0,,AS_NEW,tienen,vlaams-brabant
10734971,haaltert,9450,50.9043635,4.0039228,APARTMENT,APARTMENT,327950.0,BUY_REGULAR,,140.0,HYPER_EQUIPPED,1.0,,0,1.0,10.0,,,,3.0,,AS_NEW,haaltert,oost-vlaanderen
11031706,leuven,3000,50.8800899,4.7074722,APARTMENT,APARTMENT,721500.0,BUY_REGULAR,,185.0,INSTALLED,1.0,,1,1.0,7.0,,,,3.0,,GOOD,leuven,vlaams-brabant
11059936,rumbeke,8800,50.9318064,3.1569484,APARTMENT,DUPLEX,225000.0,BUY_REGULAR,1.0,111.0,,1.0,,0,,,,,,3.0,,GOOD,roeselare,west-vlaanderen
11040099,de panne,8660,51.0970352,2.5797451,APARTMENT,APARTMENT,249000.0,BUY_REGULAR,9.0,81.0,INSTALLED,1.0,,0,1.0,,,,,,,,de panne,west-vlaanderen
10879565,schaarbeek,1030,50.8562294,4.4054639,APARTMENT,APARTMENT,245000.0,BUY_REGULAR,,68.0,HYPER_EQUIPPED,1.0,0.0,0,1.0,5.0,,,,2.0,0.0,AS_NEW,schaarbeek,brussel
11100064,hoboken,2660,51.1796242,4.3568731,APARTMENT,APARTMENT,339000.0,BUY_REGULAR,,160.0,USA_HYPER_EQUIPPED,1.0,,1,1.0,27.0,,,,3.0,,GOOD,antwerpen,antwerpen
11060203,brussel,1020,50.8996918,4.3568356,APARTMENT,APARTMENT,205000.0,BUY_REGULAR,,100.0,INSTALLED,1.0,0.0,0,1.0,9.0,,,,2.0,0.0,TO_RENOVATE,brussel,brussel
11158387,maffle,7810,50.6156248,3.8072679,APARTMENT,APARTMENT,215000.0,BUY_REGULAR,,102.0,INSTALLED,1.0,,1,1.0,9.0,,,,,,GOOD,ath,henegouwen
11136538,ukkel,1180,50.8040329,4.3576337,APARTMENT,PENTHOUSE,299000.0,BUY_REGULAR,,90.0,INSTALLED,1.0,0.0,0,1.0,6.0,,,,2.0,0.0,TO_BE_DONE_UP,ukkel,brussel
11143349,brugge,8000,51.2104163,3.214247,APARTMENT,APARTMENT,549000.0,BUY_REGULAR,12.0,138.0,HYPER_EQUIPPED,1.0,,0,1.0,,,,,,,,brugge,west-vlaanderen
11121599,waregem,8790,50.8858132,3.4364065,APARTMENT,APARTMENT,349500.0,BUY_REGULAR,,141.0,INSTALLED,1.0,,1,1.0,126.0,,,,2.0,,GOOD,waregem,west-vlaanderen
11054828,aalst,9300,50.938203,4.0334664,APARTMENT,APARTMENT,485000.0,BUY_REGULAR,,116.0,,,,0,1.0,,,,,,,,aalst,oost-vlaanderen
11144758,liege 1,4000,50.634711,5.5667816,APARTMENT,APARTMENT,204000.0,BUY_REGULAR,,59.0,INSTALLED,1.0,0.0,0,,,,,,4.0,,,liège,luik
11161060,beveren (8800),8800,50.9681519,3.1439908,APARTMENT,APARTMENT,340200.0,BUY_REGULAR,10.0,113.0,INSTALLED,1.0,,0,1.0,16.0,,,,,,GOOD,roeselare,west-vlaanderen
11153170,sint-lambrechts-woluwe,1200,,,APARTMENT,APARTMENT,475000.0,BUY_REGULAR,,131.0,HYPER_EQUIPPED,1.0,0.0,0,1.0,9.0,,,,2.0,0.0,AS_NEW,sint-lambrechts-woluwe,brussel
11149932,wetteren,9230,50.9950101,3.8851962,APARTMENT,DUPLEX,339000.0,BUY_REGULAR,,134.0,INSTALLED,1.0,0.0,0,1.0,,1.0,180.0,,3.0,0.0,GOOD,wetteren,oost-vlaanderen
11108113,steendorp,9140,51.1254373,4.2803295,APARTMENT,APARTMENT,895000.0,BUY_REGULAR,,129.0,,,0.0,0,1.0,68.0,,,,,0.0,,temse,oost-vlaanderen
10983957,kuurne,8520,50.8505213,3.2946777,APARTMENT,APARTMENT,195000.0,BUY_REGULAR,1.0,107.0,,,,0,,,,,,,,GOOD,kuurne,west-vlaanderen
11132091,antwerpen,2100,51.2317766,4.4543309,APARTMENT,APARTMENT,210000.0,BUY_REGULAR,,110.0,HYPER_EQUIPPED,1.0,,0,,,,,,,0.0,GOOD,antwerpen,antwerpen
10944179,elsene,1050,50.8297767,4.3757045,APARTMENT,APARTMENT,640000.0,BUY_REGULAR,,170.0,HYPER_EQUIPPED,1.0,0.0,0,1.0,,,,,2.0,0.0,AS_NEW,elsene,brussel
10922357,oostduinkerke,8670,51.1343268,2.6761852,APARTMENT,APARTMENT,450000.0,BUY_REGULAR,,100.0,HYPER_EQUIPPED,1.0,,0,,,,,,,0.0,AS_NEW,koksijde,west-vlaanderen
10921917,leuven,3000,50.8558443,4.7765579,APARTMENT,APARTMENT,537260.0,BUY_REGULAR,,105.0,HYPER_EQUIPPED,1.0,0.0,0,1.0,9.0,,,,4.0,1.0,AS_NEW,leuven,vlaams-brabant
11069153,geraardsbergen,9500,50.7956601,3.8949867,APARTMENT,APARTMENT,215000.0,BUY_REGULAR,,130.0,USA_SEMI_EQUIPPED,1.0,0.0,0,1.0,,,,,3.0,,TO_BE_DONE_UP,geraardsbergen,oost-vlaanderen
10886760,brussel,1000,50.9000211,4.3568996,APARTMENT,APARTMENT,250000.0,BUY_REGULAR,,105.0,NOT_INSTALLED,1.0,0.0,0,1.0,18.0,,,,2.0,0.0,TO_RENOVATE,brussel,brussel
11005944,sint-amandsberg,9040,51.0515584,3.7483285,APARTMENT,APARTMENT,299000.0,BUY_REGULAR,9.0,114.0,,,,0,,,,,,,,,gent,oost-vlaanderen
11103346,bastogne,6600,49.9975384,5.7166257,APARTMENT,APARTMENT,289000.0,BUY_REGULAR,,101.0,,,0.0,0,1.0,12.0,,,,2.0,0.0,GOOD,bastogne,luxemburg
11140814,elsene,1050,50.8326014,4.3643491,APARTMENT,APARTMENT,395000.0,BUY_REGULAR,,76.0,USA_HYPER_EQUIPPED,1.0,1.0,0,1.0,15.0,,,,2.0,0.0,AS_NEW,elsene,brussel
11116123,antwerpen,2020,51.1815133,4.3856143,APARTMENT,APARTMENT,229500.0,BUY_REGULAR,,76.0,INSTALLED,1.0,,1,1.0,,1.0,,,,,GOOD,antwerpen,antwerpen
10880185,sint-pieters-woluwe,1150,50.833622,4.4114462,APARTMENT,DUPLEX,355000.0,BUY_REGULAR,,120.0,INSTALLED,1.0,0.0,0,,,,,,2.0,0.0,GOOD,sint-pieters-woluwe,brussel
10878001,jette,1090,50.8909928,4.3169876,APARTMENT,FLAT_STUDIO,135000.0,BUY_REGULAR,,53.0,NOT_INSTALLED,1.0,0.0,0,,,,,,2.0,0.0,TO_BE_DONE_UP,jette,brussel
11053366,knokke,8300,51.3503539,3.2900307,APARTMENT,PENTHOUSE,865000.0,BUY_REGULAR,11.0,105.0,HYPER_EQUIPPED,1.0,,0,1.0,20.0,,,,2.0,,,knokke-heist,west-vlaanderen
11112007,herent,3020,50.9072768,4.6770869,APARTMENT,PENTHOUSE,525000.0,BUY_REGULAR,,166.0,,,,1,1.0,,,,,4.0,,,herent,vlaams-brabant
10885493,antwerpen,2000,51.206178,4.3828378,APARTMENT,APARTMENT,320000.0,BUY_REGULAR,,58.0,,,,0,1.0,24.0,,,,2.0,0.0,AS_NEW,antwerpen,antwerpen
11162074,mechelen,2800,51.0374595,4.5144165,APARTMENT,APARTMENT,389000.0,BUY_REGULAR,,128.0,INSTALLED,1.0,,1,1.0,,1.0,29.0,,3.0,,,mechelen,antwerpen
9437761,jette,1090,50.8850236,4.3250727,APARTMENT,LOFT,395000.0,BUY_REGULAR,,179.0,HYPER_EQUIPPED,1.0,0.0,0,1.0,11.0,1.0,200.0,,2.0,0.0,GOOD,jette,brussel
11117822,gent,9000,51.0471545,3.7099055,APARTMENT,APARTMENT,295000.0,BUY_REGULAR,12.0,94.0,,,,0,,,,,,,,,gent,oost-vlaanderen
11026172,oostende,8400,51.2255109,2.9114694,APARTMENT,APARTMENT,469000.0,BUY_REGULAR,15.0,185.0,,1.0,,0,1.0,5.0,,,,,,TO_BE_DONE_UP,oostende,west-vlaanderen
11054089,sint-pieters-leeuw,1600,50.7919906,4.2873645,APARTMENT,DUPLEX,375000.0,BUY_REGULAR,,133.0,INSTALLED,1.0,,0,,,1.0,30.0,,3.0,,AS_NEW,sint-pieters-leeuw,vlaams-brabant
11082451,antwerpen,2050,51.2329579,4.3801146,APARTMENT,APARTMENT,325000.0,BUY_REGULAR,,135.0,,,,0,1.0,,,,,,,GOOD,antwerpen,antwerpen
11088974,elsene,1050,50.8378882,4.3669979,APARTMENT,APARTMENT,310000.0,BUY_REGULAR,,70.0,USA_SEMI_EQUIPPED,1.0,,0,1.0,,,,,2.0,0.0,JUST_RENOVATED,elsene,brussel
11158313,edegem,2650,51.1634518,4.428632,APARTMENT,APARTMENT,345000.0,BUY_REGULAR,,85.0,INSTALLED,1.0,,0,,,,,,,,GOOD,edegem,antwerpen
11119931,lanaken,3620,50.8886125,5.6501848,APARTMENT,APARTMENT,695000.0,BUY_REGULAR,11.0,161.0,HYPER_EQUIPPED,1.0,,0,1.0,85.0,,,,,,GOOD,lanaken,limburg
11077967,halle,1500,50.7334695,4.2330964,APARTMENT,APARTMENT,295000.0,BUY_REGULAR,1.0,108.0,,,,0,,,,,,,,GOOD,halle,vlaams-brabant
11148020,wenduine,8420,51.3019199,3.0800633,APARTMENT,APARTMENT,475000.0,BUY_REGULAR,1.0,80.0,,,,0,1.0,2.0,,,,,,GOOD,de haan,west-vlaanderen
11091256,zeebrugge,8380,51.3278504,3.1799839,APARTMENT,APARTMENT,339000.0,BUY_REGULAR,8.0,61.0,HYPER_EQUIPPED,1.0,,0,,,,,,3.0,,,brugge,west-vlaanderen
10934900,anderlecht,1070,50.8318529,4.2837135,APARTMENT,APARTMENT,185000.0,BUY_REGULAR,,80.0,SEMI_EQUIPPED,1.0,,0,1.0,14.0,,,,4.0,,TO_RENOVATE,anderlecht,brussel
10939826,sint-lambrechts-woluwe,1200,50.839723,4.4089116,APARTMENT,APARTMENT,298000.0,BUY_REGULAR,,72.0,INSTALLED,1.0,0.0,0,1.0,2.0,,,,2.0,0.0,GOOD,sint-lambrechts-woluwe,brussel
11156539,sint-jans-molenbeek,1080,50.849107,4.3228392,APARTMENT,APARTMENT,219000.0,BUY_REGULAR,,60.0,HYPER_EQUIPPED,1.0,,0,1.0,5.0,,,,2.0,0.0,AS_NEW,sint-jans-molenbeek,brussel
10807541,blankenberge,8370,51.2946419,3.1358267,APARTMENT,APARTMENT,355000.0,BUY_REGULAR,1.0,95.0,,,,0,1.0,,,,,,,GOOD,blankenberge,west-vlaanderen
11156384,gent,9000,51.0411777,3.7111984,APARTMENT,GROUND_FLOOR,295000.0,BUY_REGULAR,,54.0,USA_HYPER_EQUIPPED,1.0,0.0,0,1.0,10.0,1.0,42.0,,2.0,,GOOD,gent,oost-vlaanderen
10833576,waterloo,1410,50.714339,4.3958793,APARTMENT,GROUND_FLOOR,982700.0,BUY_REGULAR,,169.0,HYPER_EQUIPPED,1.0,0.0,0,1.0,22.0,1.0,142.0,,2.0,0.0,AS_NEW,waterloo,waals-brabant
10565633,evere,1140,50.8558693,4.4184622,APARTMENT,APARTMENT,302000.0,BUY_REGULAR,6.0,91.0,,,,0,1.0,25.0,,,,,,GOOD,evere,brussel
11156789,sint-lambrechts-woluwe,1200,50.8550464,4.4113738,APARTMENT,APARTMENT,400000.0,BUY_REGULAR,,98.0,USA_HYPER_EQUIPPED,1.0,0.0,0,1.0,12.0,,,,2.0,0.0,AS_NEW,sint-lambrechts-woluwe,brussel
11040394,sint-pieters-woluwe,1150,50.8380104,4.4269142,APARTMENT,LOFT,995000.0,BUY_REGULAR,4.0,185.0,USA_HYPER_EQUIPPED,1.0,0.0,0,1.0,14.0,1.0,82.0,,2.0,0.0,AS_NEW,sint-pieters-woluwe,brussel
11137743,ukkel,1180,,,APARTMENT,PENTHOUSE,1900000.0,BUY_REGULAR,4.0,215.0,HYPER_EQUIPPED,1.0,0.0,0,1.0,127.0,,,,,0.0,AS_NEW,ukkel,brussel
11138981,halen,3545,50.9495581,5.1106217,APARTMENT,APARTMENT,270300.0,BUY_REGULAR,5.0,89.0,HYPER_EQUIPPED,1.0,,0,,,,,,,,GOOD,halen,limburg
10588072,boekhoute,9961,51.2601416,3.7183273,APARTMENT,APARTMENT,224750.0,BUY_REGULAR,9.0,86.0,INSTALLED,1.0,,0,1.0,17.0,,,,,,GOOD,assenede,oost-vlaanderen
11126610,izegem,8870,50.9239813,3.2239014,APARTMENT,APARTMENT,254000.0,BUY_REGULAR,8.0,86.0,HYPER_EQUIPPED,1.0,,0,,,,,,,,,izegem,west-vlaanderen
10679404,sint-denijs-westrem,9051,51.0227733,3.6927236,APARTMENT,APARTMENT,575000.0,BUY_REGULAR,,195.0,SEMI_EQUIPPED,1.0,,0,1.0,43.0,,,,3.0,,GOOD,gent,oost-vlaanderen
11159767,willebroek,2830,51.0607848,4.3617469,APARTMENT,APARTMENT,130000.0,BUY_REGULAR,,67.0,,1.0,,0,,,,,,,,TO_RENOVATE,willebroek,antwerpen
11153794,ukkel,1180,50.8026478,4.3523223,APARTMENT,APARTMENT,1295000.0,BUY_REGULAR,,179.0,USA_HYPER_EQUIPPED,1.0,0.0,0,,,,,,4.0,,AS_NEW,ukkel,brussel
11120449,deurne,2100,51.2207377,4.4597311,APARTMENT,APARTMENT,187000.0,BUY_REGULAR,,93.0,,1.0,0.0,0,1.0,2.0,,,,2.0,0.0,,antwerpen,antwerpen
11162917,edegem,2650,,,APARTMENT,APARTMENT,175000.0,BUY_REGULAR,,69.0,INSTALLED,1.0,,0,,,,,,2.0,,GOOD,edegem,antwerpen
10881506,elsene,1050,50.8165604,4.3674563,APARTMENT,APARTMENT,295000.0,BUY_REGULAR,,60.0,SEMI_EQUIPPED,1.0,0.0,0,,,,,,2.0,0.0,GOOD,elsene,brussel
11075865,erembodegem,9320,,,APARTMENT,DUPLEX,229000.0,BUY_REGULAR,,125.0,INSTALLED,1.0,0.0,0,1.0,16.0,1.0,500.0,,4.0,,AS_NEW,aalst,oost-vlaanderen
11016336,wijnegem,2110,51.2282818,4.5292907,APARTMENT,APARTMENT,225000.0,BUY_REGULAR,,75.0,INSTALLED,1.0,0.0,0,1.0,14.0,,,,2.0,,GOOD,wijnegem,antwerpen
11133327,hoboken,2660,51.1869705,4.3724997,APARTMENT,APARTMENT,189000.0,BUY_REGULAR,10.0,98.0,,1.0,,0,1.0,2.0,,,,,,,antwerpen,antwerpen
11137429,nijlen,2560,51.1625311,4.6849908,APARTMENT,APARTMENT,314800.0,BUY_REGULAR,6.0,93.0,,,,0,1.0,10.0,,,,,,GOOD,nijlen,antwerpen
11151854,laeken,1020,,,APARTMENT,GROUND_FLOOR,270000.0,BUY_REGULAR,,106.0,HYPER_EQUIPPED,1.0,0.0,0,1.0,9.0,,,,3.0,,JUST_RENOVATED,brussel,brussel
11065788,aubange,6790,49.5625594,5.8063478,APARTMENT,APARTMENT,199000.0,BUY_REGULAR,5.0,65.0,,1.0,0.0,0,,,,,,,0.0,TO_BE_DONE_UP,aubange,luxemburg
10678723,awans,4340,50.6882014,5.4510698,APARTMENT,APARTMENT,289000.0,BUY_REGULAR,,97.0,NOT_INSTALLED,1.0,,0,1.0,14.0,,,,4.0,,,awans,luik
10547010,aubange,6791,49.5649856,5.8365556,APARTMENT,APARTMENT,315000.0,BUY_REGULAR,,88.0,,1.0,0.0,0,1.0,39.0,,,,2.0,0.0,GOOD,aubange,luxemburg
11157778,waregem,8790,50.8860584,3.4181245,APARTMENT,APARTMENT,289000.0,BUY_REGULAR,,103.0,HYPER_EQUIPPED,1.0,0.0,0,1.0,39.0,1.0,39.0,,2.0,,AS_NEW,waregem,west-vlaanderen
10861588,waterloo,1410,,,APARTMENT,DUPLEX,982700.0,BUY_REGULAR,,169.0,HYPER_EQUIPPED,1.0,0.0,0,1.0,20.0,1.0,142.0,,2.0,0.0,AS_NEW,waterloo,waals-brabant
10568692,brussel,1000,50.8452565,4.3521832,APARTMENT,APARTMENT,599000.0,BUY_REGULAR,,156.0,,,0.0,0,,,,,,4.0,0.0,GOOD,brussel,brussel
10985057,etterbeek,1040,50.8358392,4.4061003,APARTMENT,APARTMENT,470000.0,BUY_REGULAR,,120.0,USA_HYPER_EQUIPPED,1.0,0.0,0,1.0,12.0,,,,,0.0,AS_NEW,etterbeek,brussel
11156242,linkeroever,2050,51.2186097,4.3650682,APARTMENT,APARTMENT,319000.0,BUY_REGULAR,8.0,80.0,,,,0,,,,,,,,GOOD,antwerpen,antwerpen
9935237,sint-jans-molenbeek,1080,50.850566,4.3163114,APARTMENT,APARTMENT,249000.0,BUY_REGULAR,,101.0,HYPER_EQUIPPED,1.0,0.0,0,1.0,11.0,,,,2.0,0.0,AS_NEW,sint-jans-molenbeek,brussel
11157549,kortrijk,8500,50.8261922,3.2615961,APARTMENT,APARTMENT,179000.0,BUY_REGULAR,,97.0,,,,1,,,,,,2.0,,GOOD,kortrijk,west-vlaanderen
