property_id,locality_name,postal_code,street_name,house_number,latitude,longitude,property_type,property_subtype,price,type_of_sale,number_of_rooms,living_area,kitchen_type,fully_equipped_kitchen,furnished,open_fire,terrace,terrace_area,garden,garden_area,surface_of_good,number_of_facades,swimming_pool,state_of_building
11151864,Turnhout,2300,Steenweg op Gierle,84,51.3162867,4.9322054,HOUSE,HOUSE,175000,BUY_REGULAR,,120,SEMI_EQUIPPED,1,,1,1,,1,,227,3,,TO_RENOVATE
11154023,Beringen,3582,Heesterweg,39,51.065132,5.2272306,HOUSE,HOUSE,249000,BUY_REGULAR,1,157,,1,,0,,,,,1186,4,,TO_BE_DONE_UP
11141961,SAINT-JOSSE-TEN-NOODE,1210,,,,,APARTMENT,FLAT_STUDIO,120000,BUY_REGULAR,,33,NOT_INSTALLED,1,,0,1,6,,,,,,TO_BE_DONE_UP
11150522,Gavere,9890,Slaapstraat,8,50.9145933,3.6505555,HOUSE_GROUP,HOUSE_GROUP,,BUY_REGULAR,,,,,,0,,,,,,,,
11145864,Comblain-Fairon,4180,Rue du Ruisseau,1,50.4460273,5.5428264,HOUSE,HOUSE,499000,BUY_REGULAR,21,280,INSTALLED,1,,0,,,,,1323,,,
11163132,Nijvel,1400,,,,,HOUSE,HOUSE,375000,BUY_REGULAR,,160,INSTALLED,1,0,0,,,,,261,4,,
11158977,Elsene,1050,Rue Souveraine,41,50.8327332,4.3641305,APARTMENT,APARTMENT,325000,BUY_REGULAR,,59,USA_SEMI_EQUIPPED,1,0,0,,,,,,2,0,AS_NEW
10851681,Marcinelle,6001,,,,,HOUSE,VILLA,320000,BUY_REGULAR,,135,INSTALLED,1,0,0,,,,,780,4,,AS_NEW
11159690,Gent,9000,Sint-Katelijnestraat,16,51.0590626,3.7280884,HOUSE,MIXED_USE_BUILDING,895000,BUY_REGULAR,1,561,,,,0,,,1,30,264,2,,TO_RENOVATE
10818793,Knokke-Heist,8300,Kustlaan,115,51.3543994,3.2977628,APARTMENT_GROUP,APARTMENT_GROUP,,BUY_REGULAR,,,,,,0,,,,,,,,
11144974,FLORENVILLE,6820,rue des écoles,7,49.715166,5.233625,HOUSE,HOUSE,175000,BUY_REGULAR,,195,SEMI_EQUIPPED,1,,0,,,,,142,2,,GOOD
11072105,Bruxelles,1040,Rue Guimard,19,50.8435094,4.3702633,APARTMENT,APARTMENT,650000,BUY_REGULAR,,216,INSTALLED,1,0,0,,,,,,3,0,AS_NEW
11158864,Dilsen-Stokkem,3650,Haverstraat,20,51.0349297,5.7175208,HOUSE,HOUSE,375000,BUY_REGULAR,15,239,,,,0,,,,,528,,,
11129303,De Haan,8420,Torenhofstraat,2,51.2571575,2.9994248,APARTMENT,APARTMENT,119000,BUY_REGULAR,1,48,,,,0,,,,,,,,GOOD
11155131,Vorselaar,2290,Kempenlaan,"2, D",51.2026925,4.7683497,APARTMENT,APARTMENT,249000,BUY_REGULAR,,75,SEMI_EQUIPPED,1,,1,1,,,,,3,,GOOD
11156544,Grobbendonk,2280,Netestraat,1c,51.1879352,4.739096,HOUSE,HOUSE,349000,BUY_REGULAR,,185,HYPER_EQUIPPED,1,0,0,1,,,,152,3,,GOOD
11151125,Liège,4000,rue de la Tonne,308,50.6624666,5.5558704,HOUSE,HOUSE,239000,BUY_REGULAR,13,105,NOT_INSTALLED,1,0,0,1,15,1,113,229,2,0,GOOD
11007833,Strombeek-Bever,1853,Klauwaartslaan,2,50.9040265,4.3533926,HOUSE,HOUSE,645000,BUY_REGULAR,,,INSTALLED,1,0,0,,,,,383,3,0,GOOD
11148024,Bissegem,8501,Peperleenstraat,7,50.8255829,3.2282381,HOUSE,HOUSE,265000,BUY_REGULAR,1,153,,,,0,,,1,67,172,3,,GOOD
11142564,Waver,1300,Chaussée de Louvain,353,50.7213074,4.6252711,APARTMENT,DUPLEX,135000,BUY_REGULAR,,45,SEMI_EQUIPPED,1,,1,,,,,,3,,TO_BE_DONE_UP
11149557,Kuurne,8520,Boomgaardstraat,54,50.8535799,3.2814919,HOUSE,HOUSE,239000,BUY_REGULAR,1,185,,,,0,,,,,465,4,,TO_RENOVATE
11093958,Nijvel,1400,Rue de Namur,169,50.5995225,4.333127,APARTMENT,GROUND_FLOOR,165000,BUY_REGULAR,,65,HYPER_EQUIPPED,1,0,0,1,10,,,,,0,GOOD
11154148,CHASTRE-VILLEROUX-BLANMONT,1450,,,,,HOUSE,HOUSE,599000,BUY_REGULAR,,330,INSTALLED,1,,1,,,1,,1075,4,,AS_NEW
10708937,Waterloo,1410,rue de Caraute,1,50.7115297,4.3551238,APARTMENT,APARTMENT,496150,BUY_REGULAR,,,USA_HYPER_EQUIPPED,1,,0,1,16,,,,,,AS_NEW
10985322,Brussel,1000,Sint-Goriksstraat,9,50.8474409,4.3475146,APARTMENT,APARTMENT,415000,BUY_REGULAR,,93,USA_INSTALLED,1,,1,,,1,45,,,,AS_NEW
11154294,Moraira,03724,Carraterra,450,,,HOUSE,VILLA,1650000,BUY_REGULAR,1,,,,,0,1,,,,809,4,1,
11089367,Ravels,2380,Vlasrietje,46,51.376682,4.98435,HOUSE,HOUSE,199000,BUY_REGULAR,,140,INSTALLED,1,,0,1,,,,188,2,,GOOD
11148620,Lier,2500,Volmolenstraat,41,51.1287579,4.5725683,HOUSE,HOUSE,420000,BUY_REGULAR,13,172,HYPER_EQUIPPED,1,,0,,,,,121,,,
10978765,Knokke,8300,Lippenslaan,355,51.3519685,3.2886899,APARTMENT,APARTMENT,319000,BUY_REGULAR,5,29,,,,0,,,,,,2,,
11063282,Houthulst,8650,Jonkershovestraat,268,50.9693682,2.9133753,HOUSE,HOUSE,269000,BUY_REGULAR,18,182,SEMI_EQUIPPED,1,,0,,,,,2165,,,TO_RENOVATE
11100255,Knokke-Zoute,8300,Koningslaan,107,51.3496273,3.2848212,APARTMENT,APARTMENT,675000,BUY_REGULAR,9,85,HYPER_EQUIPPED,1,,0,,,,,,2,,
11159531,Perwijs,1360,,,,,HOUSE_GROUP,HOUSE_GROUP,,BUY_REGULAR,,,,,,0,,,,,,,,
11076849,Aalst (9300),9300,,,,,APARTMENT_GROUP,APARTMENT_GROUP,,BUY_REGULAR,,,,,,0,,,,,,,,
11153019,Kessel,2560,Kessel-Dorp,95,51.1403599,4.6312648,APARTMENT,APARTMENT,379000,BUY_REGULAR,12,170,HYPER_EQUIPPED,1,,0,,,,,,,,
11146272,Charleroi Jumet,6040,,,,,HOUSE,HOUSE,245000,BUY_REGULAR,,,,,0,0,1,,,,0,4,,TO_BE_DONE_UP
11150517,Gavere,9890,Slaapstraat,"8,A",50.9145933,3.6505555,HOUSE,HOUSE,364163,BUY_REGULAR,,120,HYPER_EQUIPPED,1,0,0,1,15,1,158,238,3,0,AS_NEW
11154493,Anderlecht,1070,Avenue Guillaume Stassart,"1,22",50.8214707,4.2976678,APARTMENT,APARTMENT,169000,BUY_REGULAR,,70,NOT_INSTALLED,1,,0,1,13,,,,,,TO_RENOVATE
11163007,Lier,2500,Arbeidsstraat,20,51.1412527,4.5595574,HOUSE,OTHER_PROPERTY,585000,BUY_REGULAR,,217,INSTALLED,1,,1,1,14,1,168,312,3,,AS_NEW
11161550,Deinze,9800,Staggestraat,-,51.0011589,3.4655187,HOUSE,HOUSE,675831,BUY_REGULAR,8,,HYPER_EQUIPPED,1,,0,,,,,1000,,,
10952162,Oostende,8400,Wapenplein,6,51.2322806,2.9175081,APARTMENT,APARTMENT,800000,BUY_REGULAR,12,223,,1,,0,1,,,,,,,TO_RENOVATE
11156572,Gent,9051,Raymonde de Larochelaan,1,51.0274241,3.696983,APARTMENT,APARTMENT,320000,BUY_REGULAR,,90,USA_HYPER_EQUIPPED,1,0,0,1,11,,,,4,0,AS_NEW
10545648,Knokke-Heist,8300,Jozef Nellenslaan,223,51.350444,3.2842117,APARTMENT,APARTMENT,845000,BUY_REGULAR,,74,USA_SEMI_EQUIPPED,1,1,0,1,4,,,,2,0,AS_NEW
11159112,Deerlijk,8540,Stationsstraat,28-30,50.8518225,3.351145,APARTMENT_GROUP,APARTMENT_GROUP,,BUY_REGULAR,,,,,,0,,,,,,,,
10892319,Vilvoorde,1800,Maria Theresialaan,65,50.9228315,4.4213012,APARTMENT,APARTMENT,346939,BUY_REGULAR,,112,HYPER_EQUIPPED,1,0,0,1,8,,,,4,,AS_NEW
10975236,Tienen,3300,Residentie Beatrijs,167,50.8074418,4.9483421,APARTMENT,APARTMENT,199000,BUY_REGULAR,,104,,1,0,0,1,25,,,,3,0,TO_BE_DONE_UP
11154352,MALONNE,5020,Fond de Malonne,136,50.4372428,4.7951765,HOUSE,HOUSE,259000,BUY_REGULAR,,400,,,1,1,,,1,650,1149,2,,TO_RENOVATE
11145362,Forêt,4870,,,,,APARTMENT,APARTMENT,270000,BUY_REGULAR,,81,INSTALLED,1,,1,1,8,,,,4,,
11154804,Geel,2440,Pas,289,51.154519,4.9792577,HOUSE,HOUSE,325000,BUY_REGULAR,,183,,,,1,,,1,,847,3,,TO_BE_DONE_UP
11151705,HÉLÉCINE,1357,,,,,APARTMENT,APARTMENT,206500,BUY_REGULAR,,69,,,,1,,,,,,2,,
10857677,Elsene,1050,,,,,APARTMENT,APARTMENT,850000,BUY_REGULAR,,176,USA_HYPER_EQUIPPED,1,0,0,1,12,,,,2,0,AS_NEW
11038477,Evere,1140,Rue Colonel Bourg,135,50.8558693,4.4184622,APARTMENT,PENTHOUSE,462000,BUY_REGULAR,,124,USA_HYPER_EQUIPPED,1,0,0,1,17,,,,2,0,AS_NEW
10732841,Elsene,1050,Armand Huysmanslaan,2,50.8157264,4.383899,APARTMENT,APARTMENT,349000,BUY_REGULAR,,80,,1,0,0,1,,,,,3,0,TO_BE_DONE_UP
10880066,Harelbeke,8530,Gentsestraat,61,50.8595894,3.3164257,APARTMENT,APARTMENT,355000,BUY_REGULAR,,218,INSTALLED,1,,0,1,50,,,,,0,AS_NEW
10900623,Blankenberge,8370,Graaf Jansdijk,3,51.3164459,3.13189,APARTMENT,FLAT_STUDIO,139000,BUY_REGULAR,1,37,,,,0,,,,,,,,GOOD
11156699,Vloesberg,7880,Hanaise,17,50.733485,3.7335456,HOUSE,HOUSE,395000,BUY_REGULAR,,278,INSTALLED,1,,1,1,,,,1783,4,,
11004786,Tongeren,3700,Maastrichtersteenweg,167,50.7837865,5.481471,APARTMENT_GROUP,APARTMENT_GROUP,,BUY_REGULAR,,,,,,0,,,,,,,,
10917401,Kontich,2550,Albertlei,32,51.1362868,4.4381406,APARTMENT,APARTMENT,229000,BUY_REGULAR,,,INSTALLED,1,,0,1,30,,,,2,0,AS_NEW
11163000,Asse,1730,Koensborre,92,50.9129324,4.191885,HOUSE,HOUSE,280000,BUY_REGULAR,,188,NOT_INSTALLED,1,,1,1,15,1,34,0,3,,TO_BE_DONE_UP
10947688,Diksmuide,8600,Wilgendijk,40-42,51.0338417,2.8612234,HOUSE,HOUSE,320000,BUY_REGULAR,3,174,,1,,0,1,,,,90,,,TO_RESTORE
11020535,Gavere,9890,Stationsstraat,66,50.9299385,3.6374336,APARTMENT,APARTMENT,299000,BUY_REGULAR,10,90,,,,0,1,,,,,2,,
11153163,Anderlecht,1070,,,,,APARTMENT,APARTMENT,210000,BUY_REGULAR,,75,SEMI_EQUIPPED,1,0,0,1,9,,,,2,,AS_NEW
10951739,Berchem,2600,Fruithoflaan,"3, 502",51.1828858,4.4380297,APARTMENT,APARTMENT,319000,BUY_REGULAR,,140,INSTALLED,1,,1,1,22,,,,,,
11076188,Molenbeek-Saint-Jean,1080,Rue du Korenbeek,17,50.8590413,4.3091157,APARTMENT,GROUND_FLOOR,249000,BUY_REGULAR,,90,USA_HYPER_EQUIPPED,1,0,0,1,14,,,,2,,AS_NEW
11152623,Deurne (2100),2100,Fredegandus Van Rielstraat,27,51.2096059,4.4759977,APARTMENT,APARTMENT,299000,BUY_REGULAR,9,,INSTALLED,1,,0,1,6,,,,,,
11152834,Grobbendonk,2280,Herentalse steenweg,106,51.1746087,4.786698,HOUSE,HOUSE,698000,BUY_REGULAR,,307,INSTALLED,1,,1,1,,1,805,2385,4,1,GOOD
9595243,Izegem,8870,Kasteelstraat,33,50.9182241,3.2211219,APARTMENT_GROUP,APARTMENT_GROUP,,BUY_REGULAR,,,,,,0,,,,,,,,
11052730,Waver,1300,Place Bosch,19,50.7138241,4.6119057,APARTMENT,APARTMENT,160000,BUY_REGULAR,,69,SEMI_EQUIPPED,1,0,0,,,,,,2,0,TO_RENOVATE
11161908,Meise,1860,Westrodestraat,6,50.9959708,4.3252588,HOUSE,VILLA,599000,BUY_REGULAR,,260,INSTALLED,1,,1,1,,,,1664,4,,GOOD
11161345,Asse,1731,,,,,HOUSE,HOUSE,460000,BUY_REGULAR,,200,INSTALLED,1,,1,1,30,1,40,198,3,,
11033628,Brussel,1000,Sint-Goriksstraat,9,50.8474409,4.3475146,APARTMENT,APARTMENT,415000,BUY_REGULAR,,93,USA_INSTALLED,1,,1,,,1,45,,,,AS_NEW
11148007,Edegem,2650,Ernest Jouretlaan,71,51.1486222,4.4569533,HOUSE,APARTMENT_BLOCK,1375000,BUY_REGULAR,,,HYPER_EQUIPPED,1,,1,,,,,0,,,
11148011,Deurne,2100,De Berlaimontstraat,43,51.2283873,4.4567127,HOUSE,HOUSE,179000,BUY_REGULAR,,,INSTALLED,1,,1,,,,,0,,,
11158218,Welle,9473,Broekstraat,124,50.8982189,4.041398,HOUSE,HOUSE,380000,BUY_REGULAR,3,93,,1,,1,1,,,,320,3,,JUST_RENOVATED
10991540,TORREVIEJA (COSTA BLANCA SUD),03185,,,,,APARTMENT,APARTMENT,119900,BUY_REGULAR,,43,NOT_INSTALLED,1,,1,1,48,,,,,1,GOOD
11138973,Halen,3545,Singellaan,,50.9495581,5.1106217,APARTMENT,APARTMENT,282200,BUY_REGULAR,5,93,HYPER_EQUIPPED,1,,0,,,,,,,,GOOD
11161334,Mechelen,2800,Koningin Astridlaan,132,51.0240088,4.468717,HOUSE,HOUSE,257931,BUY_REGULAR,4,72,,,,0,1,8,,,0,,,
9985452,Knokke-Heist,8300,Lentelaan,11,51.3460101,3.268392,APARTMENT,APARTMENT,1365000,BUY_REGULAR,16,157,INSTALLED,1,,0,1,,,,,,,
11153884,Zottegem,9620,Kloosterstraat,67A,50.8511891,3.8196985,HOUSE,HOUSE,471800,BUY_REGULAR,,209,USA_HYPER_EQUIPPED,1,0,0,1,19,1,49,241,3,0,AS_NEW
11083322,Fosses-la-Ville,5070,Rue des Remparts,11,50.3951938,4.6972814,APARTMENT,APARTMENT,197000,BUY_REGULAR,,69,USA_INSTALLED,1,,0,1,9,,,,3,,JUST_RENOVATED
11143772,Aalst,9300,Sinte Gudulastraat,11,50.9452041,4.0462358,HOUSE,HOUSE,240000,BUY_REGULAR,,124,INSTALLED,1,,0,,,,,59,2,,GOOD
11158666,Wemmel,1780,De Limburg Stirumlaan,244,50.9011377,4.319904,HOUSE,APARTMENT_BLOCK,795000,BUY_REGULAR,,279,SEMI_EQUIPPED,1,,1,1,,,,180,2,,TO_BE_DONE_UP
11102172,Overijse,3090,Leegheid,12,50.7719515,4.5404976,APARTMENT,DUPLEX,450000,BUY_REGULAR,,146,INSTALLED,1,,1,1,22,,,,3,,AS_NEW
11014595,Bruxelles,1000,Avenue de l'Uruguay,4,50.799716,4.3929406,APARTMENT,GROUND_FLOOR,598000,BUY_REGULAR,,149,USA_HYPER_EQUIPPED,1,1,0,1,15,,,,2,,AS_NEW
10725918,Antwerpen,2060,Ellermanstraat,61,51.2301643,4.4170893,APARTMENT,FLAT_STUDIO,145000,BUY_REGULAR,,31,,,,0,1,19,,,,4,,AS_NEW
11160666,Wortegem-Petegem,9790,,,,,HOUSE,HOUSE,539881,BUY_REGULAR,,241,,,,0,,,,,2239,4,,
11016926,Lier,2500,Kapmes,12,51.1426546,4.5509929,APARTMENT,APARTMENT,324520,BUY_REGULAR,,94,INSTALLED,1,,1,1,21,,,,2,,
11158419,Oostduinkerke,8670,,,,,HOUSE,HOUSE,209000,BUY_REGULAR,11,,,,,0,,,,,0,,,
11149427,Knokke-Heist,8300,Jozef Nellenslaan,89,51.3462716,3.2706348,APARTMENT,APARTMENT,1345000,BUY_REGULAR,1,121,,,,0,1,,,,,,,GOOD
11128321,Gent,9000,Kouter,11-25,51.0499226,3.7238132,APARTMENT,APARTMENT,639669,BUY_REGULAR,,77,USA_HYPER_EQUIPPED,1,0,0,1,9,,,,2,0,AS_NEW
11154902,Turnhout,2300,Jommekestraat,20,51.3377191,4.9344756,APARTMENT,GROUND_FLOOR,288900,BUY_REGULAR,,86,INSTALLED,1,,1,1,12,,,,2,,
11099164,Varsenare,8490,Koning Albertstraat,25,51.1867411,3.1459096,APARTMENT,APARTMENT,265000,BUY_REGULAR,8,114,HYPER_EQUIPPED,1,,0,,,,,,,,AS_NEW
11161974,Ganshoren,1083,"Avenue des Quatre-vingts Hêtres, Ganshoren, Belgique",36,50.879172,4.310065,HOUSE,HOUSE,449000,BUY_REGULAR,,191,USA_HYPER_EQUIPPED,1,0,0,,,,,310,3,,
11153195,Antwerpen,2020,Kruishofstraat,146,51.1821925,4.3915097,APARTMENT,APARTMENT,219000,BUY_REGULAR,,89,USA_HYPER_EQUIPPED,1,,0,1,5,,,,,,
11146281,Somzée,5651,Rue Saint-Antoine,48,50.2998791,4.4780142,HOUSE,HOUSE,329000,BUY_REGULAR,,169,,1,,0,1,17,1,829,937,4,,AS_NEW
10897491,Bierbeek,3360,Groot Park,1E,50.8552211,4.776519,APARTMENT,APARTMENT,422440,BUY_REGULAR,,102,HYPER_EQUIPPED,1,0,0,1,12,,,,4,1,AS_NEW
11146642,Moeskroen,7700,,,,,HOUSE,HOUSE,435000,BUY_REGULAR,,220,INSTALLED,1,0,0,1,,1,600,1196,4,0,GOOD
11044168,LIÈGE,4000,Quai de Rome,108,50.6182094,5.5783806,APARTMENT_GROUP,APARTMENT_GROUP,,BUY_REGULAR,,,,,,0,,,,,,,,
11122796,Elsene,1050,,,,,APARTMENT,APARTMENT,260000,BUY_REGULAR,,63,USA_HYPER_EQUIPPED,1,0,0,,,,,,2,0,AS_NEW
11109630,Verviers Petit-Rechain,4800,Thier de Hodimont,97,50.5985488,5.8438436,APARTMENT,APARTMENT,125000,BUY_REGULAR,,58,INSTALLED,1,0,0,1,16,,,,2,0,GOOD
11095764,Gent,9000,Brusselsesteenweg,666,51.0294641,3.7646576,APARTMENT,PENTHOUSE,799000,BUY_REGULAR,11,130,HYPER_EQUIPPED,1,,0,1,11,,,,,,GOOD
10891188,Asse Zellik,1731,Breughelpark,"4,9",50.8843203,4.2703773,APARTMENT,APARTMENT,120000,BUY_REGULAR,,,,1,,0,1,,,,,,,
11041554,Knokke-Heist,8301,Zeedijk,104,51.3399705,3.2304659,APARTMENT,APARTMENT,298000,BUY_REGULAR,1,44,,,,0,,,,,,,,GOOD
11045756,Oostkamp,8020,Stationsstraat,22,51.154188,3.237054,APARTMENT_GROUP,APARTMENT_GROUP,,BUY_REGULAR,,,,,,0,,,,,,,,
8948318,Knokke-Heist,8300,Sportlaan,"6,A03",51.3435412,3.2836473,APARTMENT,SERVICE_FLAT,458000,BUY_REGULAR,,56,INSTALLED,1,,0,1,13,,,,3,,AS_NEW
11155351,Oostrozebeke,8780,Grotstraat,84a,50.9447128,3.357753,HOUSE,HOUSE,105000,BUY_REGULAR,,60,,1,1,1,,,,,0,2,,GOOD
11142984,Tienen,3300,Diestsesteenweg,191,50.8186831,4.9365061,HOUSE,HOUSE,290000,BUY_REGULAR,,173,,1,0,0,,,1,360,360,3,0,
11162380,Ham,3945,Shermanstraat,40,51.1025986,5.1825444,HOUSE,HOUSE,381000,BUY_REGULAR,,197,HYPER_EQUIPPED,1,0,0,,,,,343,3,,AS_NEW
11154477,SINT-NIKLAAS,9100,Schoolstraat,174,51.1568933,4.1515034,HOUSE,HOUSE,255000,BUY_REGULAR,,146,NOT_INSTALLED,1,,1,1,,1,,348,2,,GOOD
11142438,BRAINE-LE-CHÂTEAU,1440,Rue de la Station,41,50.6815744,4.2723966,HOUSE,MIXED_USE_BUILDING,615000,BUY_REGULAR,,450,SEMI_EQUIPPED,1,,1,,,1,275,650,3,,TO_RENOVATE
11128562,Merchtem,1785,Oudstrijdersstraat,10,50.9527688,4.2301336,APARTMENT,APARTMENT,265000,BUY_REGULAR,,80,HYPER_EQUIPPED,1,0,0,1,,,,,3,0,AS_NEW
10920371,Antwerpen,2018,Markgravelei,117,51.1978271,4.4044644,APARTMENT,APARTMENT,475000,BUY_REGULAR,,101,USA_HYPER_EQUIPPED,1,,0,1,,,,,,,AS_NEW
11157329,Machelen Diegem,1831,Alfons de Cockplein,25,50.8952479,4.4363849,APARTMENT,APARTMENT,289000,BUY_REGULAR,,90,HYPER_EQUIPPED,1,0,0,1,8,,,,2,0,AS_NEW
11147929,Knesselare,9910,Drieselken,12,51.1397087,3.4147931,HOUSE,HOUSE,215000,BUY_REGULAR,1,94,,,,0,,,,,129,4,,TO_BE_DONE_UP
11147508,SAINT-GEORGES-SUR-MEUSE,4470,Rue Sur-les-Roches,30,50.5741025,5.3647479,HOUSE,HOUSE,309000,BUY_REGULAR,,131,SEMI_EQUIPPED,1,,1,1,30,1,630,1310,4,,GOOD
11145409,Sint-Kruis,8310,Julius Dooghelaan,55,51.2172987,3.2404154,HOUSE,HOUSE,340000,BUY_REGULAR,,216,INSTALLED,1,0,0,1,,,,136,3,0,
11145541,Tielt (8700),8700,Kortrijkstraat,89,50.9964257,3.3256872,APARTMENT,APARTMENT,233410,BUY_REGULAR,2,,,,,0,,,,,,,,
10557069,Deerlijk,8540,Sint-Rochusweg,322,50.8536142,3.361007,APARTMENT_GROUP,APARTMENT_GROUP,,BUY_REGULAR,,,,,,0,,,,,,,,
11160954,Wevelgem,8560,Kapellestraat,22,50.8134185,3.1869199,HOUSE,HOUSE,159500,BUY_REGULAR,8,129,,,,0,,,,,130,,,
10734920,Mechelen,2800,Brusselsesteenweg,552,51.0030066,4.4733835,APARTMENT,PENTHOUSE,674500,BUY_REGULAR,,174,USA_HYPER_EQUIPPED,1,0,0,1,22,,,,,,AS_NEW
11151265,Mol,2400,Stokt,50,51.1911167,5.0634523,HOUSE,HOUSE,275000,BUY_REGULAR,,307,,,,1,,,,,2870,4,,TO_RENOVATE
10823887,Zellik,1731,Frans Thirrystraat,16,50.8859188,4.2727111,APARTMENT,APARTMENT,224750,BUY_REGULAR,,69,INSTALLED,1,0,0,1,7,,,,2,,GOOD
11140559,Vorst,1190,Avenue du Globe,55,50.8075484,4.3258636,APARTMENT,APARTMENT,270000,BUY_REGULAR,,92,INSTALLED,1,,0,1,4,,,,,0,AS_NEW
10675306,Liège Chênée,4032,Quai des Ardennes,160,50.6147551,5.6103796,APARTMENT,APARTMENT,180000,BUY_REGULAR,,110,INSTALLED,1,0,0,1,6,,,,2,0,GOOD
11160908,Leuven,3000,Dekenstraat,28,50.873571,4.7093409,APARTMENT,FLAT_STUDIO,189000,BUY_REGULAR,,29,,,,1,,,,,,2,,TO_BE_DONE_UP
11029197,Gent,9000,Sint-Amandstraat,25,51.0430929,3.724988,APARTMENT,APARTMENT,529629,BUY_REGULAR,,85,HYPER_EQUIPPED,1,0,0,1,,,,,2,,AS_NEW
11153333,Gentbrugge,9050,Rode-Kruisstraat,5-9,51.0284723,3.7641375,HOUSE,HOUSE,509000,BUY_REGULAR,,185,USA_HYPER_EQUIPPED,1,0,0,1,,1,84,170,3,0,AS_NEW
11103591,MOLENBEEK-SAINT-JEAN,1080,,,,,APARTMENT,APARTMENT,195000,BUY_REGULAR,,100,INSTALLED,1,,0,1,,,,,2,,TO_BE_DONE_UP
11147421,MONTEGNÉE,4420,Rue des Écoles,13,50.6419582,5.5208475,APARTMENT,APARTMENT,162138,BUY_REGULAR,,60,INSTALLED,1,,1,,,,,,2,,AS_NEW
11154822,Geel,2440,Kalvariebergstraat,30,51.1055629,4.9716744,HOUSE,BUNGALOW,499000,BUY_REGULAR,,165,SEMI_EQUIPPED,1,,1,1,,1,,11903,4,,TO_RENOVATE
10890097,Knokke-Heist,8300,Ferdinand Mosselmanstraat,7,51.3496524,3.2898276,APARTMENT,APARTMENT,639000,BUY_REGULAR,1,94,,,,0,,,,,,,,GOOD
10984827,Elsene,1050,Van Eyckstraat,1,50.8206767,4.3667163,APARTMENT,APARTMENT,732000,BUY_REGULAR,5,120,,,,0,1,19,,,,,,
10470742,Meise,1860,Baptist De Donderstraat,,50.9370426,4.3268568,APARTMENT_GROUP,APARTMENT_GROUP,,BUY_REGULAR,,,,,,0,,,,,,,,
11148870,Antwerpen,2060,Lange Beeldekensstraat,174,51.2211957,4.4301226,HOUSE,MIXED_USE_BUILDING,225000,BUY_REGULAR,,245,,,,0,,,,,129,2,,
11153559,Mechelen,2800,Sint Katelijnestraat,55,51.0308354,4.4760314,HOUSE,EXCEPTIONAL_PROPERTY,299000,BUY_REGULAR,,100,USA_SEMI_EQUIPPED,1,0,0,1,5,,,46,2,,TO_RENOVATE
11113257,Gavere,9890,Broeckstraat,11,50.930874,3.6587791,APARTMENT,SERVICE_FLAT,185000,BUY_REGULAR,1,70,,1,,0,,,,,,2,,GOOD
10777288,Wezembeek-Oppem,1970,Avenue Astrid,93,50.8333181,4.498388,APARTMENT,SERVICE_FLAT,159000,BUY_REGULAR,,60,USA_INSTALLED,1,,0,1,,,,,2,,AS_NEW
11143899,Buggenhout,9255,Provincialebaan,,51.0312573,4.1918675,HOUSE_GROUP,HOUSE_GROUP,,BUY_REGULAR,,,,,,0,,,,,,,,
11162182,Tubeke,1480,,,,,APARTMENT,DUPLEX,225000,BUY_REGULAR,,105,,,,0,,,,,,2,0,GOOD
11156437,Schaarbeek,1030,,,,,APARTMENT,APARTMENT,420000,BUY_REGULAR,,107,HYPER_EQUIPPED,1,0,0,1,12,,,,2,0,JUST_RENOVATED
10894645,Brussel,1000,Groendreef,14,50.8636117,4.3543189,APARTMENT,APARTMENT,169000,BUY_REGULAR,2,,,,,0,,,,,,,,GOOD
11163235,BORGLOON,3840,Slachthuisstraat,2,50.8048749,5.3407638,HOUSE,HOUSE,364300,BUY_REGULAR,,115,,,,0,,,1,46,0,2,,
11160709,Assenede,9960,Oude Gentweg,45,51.2182107,3.7477464,HOUSE,VILLA,525000,BUY_REGULAR,1,215,,,,0,,,,,1730,4,,GOOD
11011915,Knokke-Heist,8300,Duinenwater,4,51.3394009,3.2859442,APARTMENT,APARTMENT,1195000,BUY_REGULAR,15,140,HYPER_EQUIPPED,1,,0,,,,,,2,,AS_NEW
11000331,Schaarbeek,1030,,,,,APARTMENT,APARTMENT,190000,BUY_REGULAR,,72,INSTALLED,1,0,0,,,,,,2,0,GOOD
11043486,Ruisbroek,2870,Kerkstraat,107,51.0833344,4.3242777,APARTMENT,APARTMENT,149000,BUY_REGULAR,,85,SEMI_EQUIPPED,1,,1,1,18,1,104,,2,,GOOD
11145292,Ville de Bruxelles,1000,Rue Du Marché Aux Herbes - Grasmarkt,46,50.8476358,4.3529321,APARTMENT,APARTMENT,340000,BUY_REGULAR,,87,INSTALLED,1,,0,,,,,,,0,AS_NEW
10610625,Ellezelles,7890,Ruelle de  Ecoles,25,50.7352711,3.6819951,APARTMENT,APARTMENT,299000,BUY_REGULAR,9,95,,1,,0,1,12,1,3000,,4,,GOOD
11162347,Nassogne,6950,Route Nationale 4,57,50.1565817,5.4133229,HOUSE,HOUSE,249000,BUY_REGULAR,,143,INSTALLED,1,0,0,1,,1,200,492,4,0,AS_NEW
11161324,Mechelen,2800,Koningin Astridlaan,132,51.0240088,4.468717,APARTMENT,APARTMENT,392689,BUY_REGULAR,5,95,,,,0,1,11,,,,,,
10555484,Liège 2,4020,Rue Joseph Dejardin,26,50.6363136,5.5960861,APARTMENT,APARTMENT,185000,BUY_REGULAR,,74,INSTALLED,1,0,0,,,,,,3,,GOOD
11160706,Overboelare,9500,,,,,HOUSE,HOUSE,248000,BUY_REGULAR,,200,INSTALLED,1,0,0,1,25,1,170,251,2,,AS_NEW
11092332,Hasselt,3500,Windmolenstraat,62,50.9284488,5.3465261,APARTMENT,FLAT_STUDIO,99000,BUY_REGULAR,,25,,,0,0,,,,,,2,0,
11140534,Schaarbeek,1030,Emile Zolalaan,38,50.8763925,4.3801487,APARTMENT,DUPLEX,415000,BUY_REGULAR,,147,NOT_INSTALLED,1,0,0,,,1,22,,4,0,TO_RENOVATE
10879093,Watermael-Boitsfort,1170,,,,,HOUSE,HOUSE,450000,BUY_REGULAR,7,182,,1,,0,1,12,1,310,410,,,TO_RESTORE
11155560,Antwerpen,2018,Van Schoonbekestraat,158,51.1995389,4.4034994,APARTMENT,APARTMENT,289000,BUY_REGULAR,,72,SEMI_EQUIPPED,1,,1,,,,,,,,GOOD
11143943,Bruxelles,1020,Rue des Artistes,68,50.8800877,4.3491167,APARTMENT,APARTMENT,139000,BUY_REGULAR,,50,INSTALLED,1,0,0,,,,,,2,0,TO_BE_DONE_UP
11144749,Jupille-sur-Meuse,4020,Rue de Bois de Breux 218,,50.6360685,5.6212738,HOUSE,APARTMENT_BLOCK,399000,BUY_REGULAR,,220,INSTALLED,1,0,0,,,,,554,3,,
11150235,Vilvoorde,1800,Leuvensestraat,67-73,50.9280834,4.4277078,APARTMENT,APARTMENT,247500,BUY_REGULAR,,75,INSTALLED,1,0,0,1,6,,,,4,0,AS_NEW
11154439,Mortsel,2640,Singel,50,51.1653708,4.449512,APARTMENT,GROUND_FLOOR,299000,BUY_REGULAR,,70,INSTALLED,1,,1,,,1,109,,2,,JUST_RENOVATED
11153305,Floreffe,5150,Rue Oscar Kaisin,2,50.4346598,4.7606618,HOUSE,HOUSE,30000,BUY_REGULAR,,100,INSTALLED,1,,0,,,,,334,3,,TO_BE_DONE_UP
11133792,Oudergem,1160,Boulevard du Souverain,356,50.8208162,4.4297464,APARTMENT,APARTMENT,375000,BUY_REGULAR,,110,,1,0,0,1,9,,,,3,0,GOOD
10900680,Nieuwenhove,9506,Overraadstraat,73,50.7865495,3.979988,HOUSE_GROUP,HOUSE_GROUP,,BUY_REGULAR,,,,,,0,,,,,,,,
11153283,Beringen,3581,Oosthamsesteenweg,37,51.0899447,5.2157224,HOUSE,HOUSE,249000,BUY_REGULAR,,159,USA_HYPER_EQUIPPED,1,0,0,1,,,,506,3,0,
11150712,Knokke-Heist,8300,Zeedijk-Heist,282,51.3416429,3.2446897,APARTMENT,APARTMENT,1650000,BUY_REGULAR,18,135,HYPER_EQUIPPED,1,,0,,,,,,,,GOOD
11121834,Nieuwpoort,8620,Albert I Laan,207,51.1483879,2.7166026,APARTMENT,APARTMENT,295000,BUY_REGULAR,,70,SEMI_EQUIPPED,1,,1,1,,,,,2,,TO_BE_DONE_UP
11154673,Veldegem,8210,Koning Albertstraat,3,51.1046542,3.1594658,APARTMENT,GROUND_FLOOR,249000,BUY_REGULAR,1,102,,,,0,1,,,,,2,,GOOD
11147688,Saive,4671,Rue Floréalle (Lot 7),,50.6530557,5.6858939,HOUSE,HOUSE,285000,BUY_REGULAR,,132,,,0,0,1,35,,,378,3,,
11151165,Ukkel,1180,,,,,APARTMENT,DUPLEX,599000,BUY_REGULAR,,136,USA_HYPER_EQUIPPED,1,0,0,1,15,1,120,,,,GOOD
11104939,Heverlee,3001,Bierbeekstraat,65 67,50.8722031,4.71609,APARTMENT_GROUP,APARTMENT_GROUP,,BUY_REGULAR,,,,,,0,,,,,,,,
11152762,SINT-AMANDSBERG,9040,Emiel Lossystraat,59,51.0492977,3.7599721,HOUSE,HOUSE,295000,BUY_REGULAR,,127,INSTALLED,1,,0,1,15,,,201,2,,TO_BE_DONE_UP
11059472,Koksijde,8670,Zeemeeuwenstraat 1,1,51.1145569,2.6201859,APARTMENT,APARTMENT,339000,BUY_REGULAR,,,INSTALLED,1,,0,1,8,1,100,,4,0,
11149591,Nandrin,4550,rue de la Basse,20,50.5014238,5.4223718,APARTMENT,APARTMENT,169000,BUY_REGULAR,,96,SEMI_EQUIPPED,1,,1,1,12,1,220,,,,GOOD
11016580,Bruxelles,1020,Rue de la Briqueterie,15,50.8739814,4.3514701,APARTMENT,APARTMENT,289000,BUY_REGULAR,,93,USA_SEMI_EQUIPPED,1,0,0,1,6,,,,2,0,AS_NEW
11146027,HOBOKEN,2660,Zeelandstraat,37,51.1846472,4.369646,HOUSE,HOUSE,465000,BUY_REGULAR,,207,INSTALLED,1,,0,1,33,1,110,231,2,,GOOD
11151422,Geldenaken,1370,Rue des Gotteaux,5,50.7220651,4.8711928,HOUSE,HOUSE,325000,BUY_REGULAR,,160,INSTALLED,1,,1,1,25,1,,287,3,,
11158318,WILRIJK,2610,Klaproosstraat,26,51.1701367,4.4066834,HOUSE,HOUSE,249000,BUY_REGULAR,,125,,,,0,,,1,36,109,2,,TO_RENOVATE
9764944,Halle,1500,Ninoofsesteenweg,45,50.7374476,4.2346957,APARTMENT_GROUP,APARTMENT_GROUP,,BUY_REGULAR,,,,,,0,,,,,,,,
11143040,WILRIJK,2610,Jozef Kenneslei,19,51.1738765,4.3929812,HOUSE,HOUSE,499000,BUY_REGULAR,,205,INSTALLED,1,,0,,,1,87,187,2,,GOOD
11159448,Somme-Leuze,5377,Rue du Pays-du-Roi,10,50.3369008,5.369151,HOUSE,HOUSE,225000,BUY_REGULAR,5,160,,1,,1,,,1,2135,2135,,,TO_RESTORE
10346301,Zedelgem,8210,Sint-Laurentiusstraat,36,51.1428722,3.1328721,APARTMENT_GROUP,APARTMENT_GROUP,,BUY_REGULAR,,,,,,0,,,,,,,,
11158646,Mechelen,2800,Koningin Astridlaan,132,51.0240088,4.468717,APARTMENT,APARTMENT,461524,BUY_REGULAR,5,103,,,,0,1,13,,,,,,
11091714,Molenbeek-Saint-Jean,1080,,,,,APARTMENT,DUPLEX,465000,BUY_REGULAR,,206,USA_HYPER_EQUIPPED,1,0,0,1,12,,,,2,0,AS_NEW
10950794,Zeebrugge,8380,Noordhinderstraat,25,51.3315241,3.2035032,APARTMENT,APARTMENT,399000,BUY_REGULAR,1,120,,,,0,,,1,22,,,,GOOD
11143449,Geraardsbergen,9500,Kattestraat,70,50.7692382,3.8775412,APARTMENT,APARTMENT,195000,BUY_REGULAR,,50,,,,0,,,,,,2,,GOOD
11144534,Leopoldsburg,3971,Markt,4,51.1092226,5.2295277,APARTMENT,APARTMENT,199000,BUY_REGULAR,1,110,,1,,0,1,17,,,,,,GOOD
11151900,Schaarbeek,1030,Rogierlaan,58,50.8601766,4.3750571,APARTMENT,DUPLEX,375000,BUY_REGULAR,4,120,,1,,0,1,6,,,,,,GOOD
11161798,Dendermonde,9200,Bareelstraat,1,51.0219963,4.114072,APARTMENT,APARTMENT,220000,BUY_REGULAR,,67,,1,0,0,,,,,,3,0,
11145199,Roeselare,8800,Olmenstraat,15,50.9360598,3.118506,HOUSE,HOUSE,335000,BUY_REGULAR,,,,,,0,,,,,700,2,,GOOD
10880166,St-Jans-Molenbeek,1080,Louis Mettewielaan,95,50.8530853,4.3009629,APARTMENT,APARTMENT,229000,BUY_REGULAR,,95,INSTALLED,1,,0,1,,,,,,,GOOD
11097428,Oostende,8400,Leopold Van Tyghemlaan,90 - 0110,51.2168949,2.8847985,APARTMENT,APARTMENT,220000,PUBLIC_SALE,,60,INSTALLED,1,,0,1,,,,,2,,AS_NEW
11135012,Gent,9000,Martelaarslaan,314,51.0477043,3.7104242,APARTMENT,APARTMENT,295000,BUY_REGULAR,,90,SEMI_EQUIPPED,1,,0,1,,,,,,,GOOD
11147890,Jabbeke,8490,Nieuwenhovedreef,39,51.1831069,3.1400117,APARTMENT,APARTMENT,599000,BUY_REGULAR,3,120,,1,,1,1,,,,,,,GOOD
10380965,Gent,9000,Francisco Ferrerlaan,61,51.0684402,3.7011604,APARTMENT_GROUP,APARTMENT_GROUP,,BUY_REGULAR,,,,,,0,,,,,,,,
11103404,Schaarbeek,1030,,,,,APARTMENT,APARTMENT,310000,BUY_REGULAR,,118,SEMI_EQUIPPED,1,0,0,1,7,,,,2,0,TO_RENOVATE
11087397,Ukkel,1180,Rue Général Mac Arthur,39,50.8127314,4.3539477,APARTMENT,GROUND_FLOOR,390000,BUY_REGULAR,,98,HYPER_EQUIPPED,1,0,0,1,30,,,,2,0,AS_NEW
11093907,Bruxelles,1000,,,,,APARTMENT,DUPLEX,1080000,BUY_REGULAR,4,229,USA_HYPER_EQUIPPED,1,,0,1,,,,,4,1,AS_NEW
11075773,Brussel,1000,Helihavenlaan,48,50.863423,4.3547239,APARTMENT,APARTMENT,185000,BUY_REGULAR,2,38,,,1,0,,,,,,,,GOOD
10865896,Yvoir,5530,Luchelet,43,50.3328102,4.917917,HOUSE,BUNGALOW,119000,BUY_REGULAR,,,,1,,1,1,,1,,1253,4,,GOOD
11008988,Knokke-Zoute,8300,,,,,APARTMENT,APARTMENT,2585000,BUY_REGULAR,,130,,,0,0,1,,,,,2,0,AS_NEW
11148186,TIELT-WINGE,3390,Tramstraat,7,50.8959847,4.926924,HOUSE,HOUSE,295000,BUY_REGULAR,,109,SEMI_EQUIPPED,1,,0,1,53,,,970,4,,TO_RENOVATE
10943929,Oostende,8400,Schaafstraat,26,51.2208277,2.9019268,APARTMENT,APARTMENT,274000,BUY_REGULAR,,90,,,0,0,1,,,,,2,0,
11148495,Sint-Ulriks-Kapelle,1700,Hoppeweg,2,50.8811397,4.2202428,HOUSE,HOUSE,569000,BUY_REGULAR,6,218,,,,0,,,1,700,817,,,GOOD
11142860,Hoboken,2660,Fodderiestraat,5,51.1816832,4.3482399,HOUSE,HOUSE,299000,BUY_REGULAR,,112,INSTALLED,1,,1,,,1,27,92,2,,JUST_RENOVATED
11053072,Gent,9000,Einde Were,13,51.0509732,3.7012871,APARTMENT,SERVICE_FLAT,349500,BUY_REGULAR,8,81,INSTALLED,1,,0,1,10,,,,,,
11148946,Saint-Josse-ten-Noode,1210,Esplanade Madou,6,50.8489056,4.3699398,APARTMENT,APARTMENT,349000,BUY_REGULAR,,110,USA_HYPER_EQUIPPED,1,0,0,,,,,,2,,
10910999,Oostende,8400,Christinastraat,151,51.2280326,2.9203142,APARTMENT,APARTMENT,870000,BUY_REGULAR,13,160,HYPER_EQUIPPED,1,,0,1,8,,,,,,GOOD
11152617,Affligem,1790,,,,,HOUSE,HOUSE,399000,BUY_REGULAR,15,170,INSTALLED,1,,0,,,,,234,,,
11162293,Ukkel,1180,Chaussee de Waterloo,1500,50.7839935,4.378974,APARTMENT,DUPLEX,499000,BUY_REGULAR,,178,NOT_INSTALLED,1,0,0,1,4,,,,2,0,TO_RENOVATE
11148029,Tongeren,3700,Achttiende Oogstwal,19,50.7842388,5.4701038,APARTMENT,APARTMENT,189000,BUY_REGULAR,,98,SEMI_EQUIPPED,1,,1,1,3,,,,,,TO_BE_DONE_UP
11154335,IXELLES,1050,,,,,HOUSE,APARTMENT_BLOCK,950000,BUY_REGULAR,,386,NOT_INSTALLED,1,,0,,,1,250,380,,,TO_RESTORE
11158838,Brugge,8000,Sint-Pietersgroenestraat,49,51.2228696,3.2160749,HOUSE,HOUSE,387000,BUY_REGULAR,13,171,,,,0,,,,,127,,,
11145912,Saint-Léger (7730),7730,Rue de Lille,17,50.7029334,3.3108435,HOUSE_GROUP,HOUSE_GROUP,,BUY_REGULAR,,,,,,0,,,,,,,,
11156105,Roeselare,8800,Schildersstraat,14,50.9526609,3.1094897,HOUSE,HOUSE,236000,BUY_REGULAR,,,,,,0,1,,,,226,2,,GOOD
11041454,Melle,9090,Merelbekestraat,105,51.0191237,3.7698478,APARTMENT,APARTMENT,212500,BUY_REGULAR,2,60,,1,,0,1,4,,,,,,GOOD
10260931,BARVAUX,6940,,,,,APARTMENT_GROUP,APARTMENT_GROUP,,BUY_REGULAR,,,,,,0,,,,,,,,
11144851,Rekkem,8930,Dronckaertstraat,85,50.7711925,3.1673028,HOUSE,HOUSE,269000,BUY_REGULAR,,178,INSTALLED,1,0,0,1,30,1,400,583,2,,GOOD
11148782,Schoten,2900,Victor Adriaenssensstraat,"6, 3",51.2467552,4.497924,APARTMENT,DUPLEX,320000,BUY_REGULAR,,108,INSTALLED,1,,1,1,30,,,,2,,GOOD
11130013,Knokke,8300,Duinenwater,35A,51.3385642,3.2777801,APARTMENT,APARTMENT,660000,BUY_REGULAR,13,83,HYPER_EQUIPPED,1,,0,1,16,,,,2,,GOOD
11153085,Putte,2580,Waversesteenweg,4,51.0594984,4.6273196,APARTMENT,APARTMENT,342760,BUY_REGULAR,10,91,HYPER_EQUIPPED,1,,0,1,,,,,,,
11126414,Lummen,3560,Gemeenteplein,1,50.9860807,5.1922981,APARTMENT_GROUP,APARTMENT_GROUP,,BUY_REGULAR,,,,,,0,,,,,,,,
10932799,Leuven,3000,Flessentrekkerspad,7,50.8861558,4.6994014,APARTMENT,DUPLEX,759527,BUY_REGULAR,,190,HYPER_EQUIPPED,1,0,0,1,15,1,,,3,,AS_NEW
11141563,Bruxelles,1000,Parkdreef,45,50.8665959,4.3449,APARTMENT_GROUP,APARTMENT_GROUP,,BUY_REGULAR,,,,,,0,,,,,,,,
10267881,Vilvoorde,1800,Gustaaf levisstraat,2,50.9258341,4.4423874,APARTMENT,APARTMENT,279500,BUY_REGULAR,,104,,,0,0,1,8,,,,2,0,GOOD
11143167,SINT-NIKLAAS,9100,Van Durmestraat,9,51.1602977,4.1507605,HOUSE,HOUSE,299000,BUY_REGULAR,,113,INSTALLED,1,,1,1,,,,138,2,,JUST_RENOVATED
11143791,Manage,7170,Rue Emile Vandervelde,118,50.479696,4.215514,HOUSE,MIXED_USE_BUILDING,210000,BUY_REGULAR,,170,,,0,0,1,,,,0,3,,TO_BE_DONE_UP
11150990,Gent,9000,Pauwstraat,8,51.0737605,3.7319055,HOUSE,HOUSE,325000,BUY_REGULAR,1,160,,1,,0,,,,,65,2,,GOOD
11149982,Brugge,8000,Groenestraat,2,51.2120878,3.2182169,HOUSE,HOUSE,229000,BUY_REGULAR,,100,INSTALLED,1,,0,,,,,37,2,,TO_RENOVATE
11149122,Antwerpen Berchem,2600,Fruithoflaan,107,51.1850075,4.4430934,APARTMENT,APARTMENT,225000,BUY_REGULAR,,63,HYPER_EQUIPPED,1,0,0,1,17,,,,2,0,AS_NEW
10918665,Gent,9000,Brugsesteenweg,200-202,51.0652335,3.690419,APARTMENT,PENTHOUSE,425000,BUY_REGULAR,,118,HYPER_EQUIPPED,1,0,0,1,11,,,,,0,AS_NEW
11158223,Ukkel,1180,,,,,HOUSE,EXCEPTIONAL_PROPERTY,2300000,BUY_REGULAR,8,476,USA_HYPER_EQUIPPED,1,0,0,1,20,,,420,3,0,AS_NEW
11157252,BONHEIDEN,2820,Putsesteenweg,252,51.0366155,4.5537964,APARTMENT,APARTMENT,325000,BUY_REGULAR,,76,INSTALLED,1,,0,1,,,,,3,,GOOD
10578089,Heist-aan-Zee,8301,Graaf d'Ursellaan,31,51.3404413,3.2436316,APARTMENT,APARTMENT,1595000,BUY_REGULAR,9,324,INSTALLED,1,,0,1,40,,,,,,
11143789,Mont-sur-Marchienne,6032,Rue de l'eglise,3,50.389298,4.4049446,HOUSE,HOUSE,115000,BUY_REGULAR,,74,INSTALLED,1,,0,,,,,64,2,,
11101102,Gent Sint-Denijs-Westrem,9051,Leiepark,18,51.0294562,3.6734597,APARTMENT_GROUP,APARTMENT_GROUP,,BUY_REGULAR,,,,,,0,,,,,,,,
11146444,Hemiksem,2620,Krokusweg,15,51.1529213,4.3472038,HOUSE,HOUSE,699000,BUY_REGULAR,,200,USA_HYPER_EQUIPPED,1,,0,1,,1,360,500,4,,AS_NEW
11141769,Genk,3600,Koning Boudewijnlaan,5,51.0121937,5.4905408,APARTMENT,APARTMENT,265000,BUY_REGULAR,,109,INSTALLED,1,,0,1,6,,,,,0,AS_NEW
11003571,Berzée,5651,,,,,HOUSE,HOUSE,169900,BUY_REGULAR,,176,INSTALLED,1,,1,1,18,1,42,236,4,,GOOD
11153775,Sint-Pieters-Leeuw,1600,,,,,APARTMENT,APARTMENT,249000,BUY_REGULAR,,,INSTALLED,1,0,0,1,3,,,,2,0,GOOD
11151785,Charleroi,6000,Rue Pige au Croly,48,50.4190196,4.4463924,HOUSE,HOUSE,160000,BUY_REGULAR,,140,,,0,0,1,,,,82,3,,AS_NEW
11115297,Molenbeek-Saint-Jean,1080,Rue de la Belle au Bois Dormant,47,50.8491067,4.3032569,APARTMENT,APARTMENT,180000,BUY_REGULAR,,80,SEMI_EQUIPPED,1,0,0,1,7,,,,2,0,GOOD
11148589,ANTWERPEN,2000,Huikstraat,13,51.2247065,4.4042071,HOUSE,HOUSE,398000,BUY_REGULAR,,178,INSTALLED,1,,0,,,,,51,2,,GOOD
11144165,Remicourt,4350,Rue de pousset,10,50.6831874,5.3224979,APARTMENT,PENTHOUSE,315000,BUY_REGULAR,,139,USA_HYPER_EQUIPPED,1,0,0,1,19,,,,3,0,AS_NEW
11154974,Bruxelles  8,1080,,,,,APARTMENT,APARTMENT,199000,BUY_REGULAR,,90,INSTALLED,1,0,0,1,10,,,,2,,
11060608,GENT,9000,Drongensesteenweg,241/209,51.0554828,3.6924317,APARTMENT,APARTMENT,215000,BUY_REGULAR,,55,SEMI_EQUIPPED,1,,0,1,,,,,2,,
11136118,Antwerpen,2060,Carnotstraat,91,51.2183202,4.4254668,APARTMENT,APARTMENT,245000,BUY_REGULAR,1,100,,,,0,,,,,,3,,GOOD
10977349,Boortmeerbeek,3190,Wespelaarsebaan,2,50.9801969,4.5737005,APARTMENT_GROUP,APARTMENT_GROUP,,BUY_REGULAR,,,,,,0,,,,,,,,
11148225,Comblain-au-Pont,4170,Vieille Rue de Géromont,46,50.4708587,5.5719733,HOUSE,HOUSE,139000,BUY_REGULAR,,110,NOT_INSTALLED,1,,1,,,1,,270,4,,TO_RENOVATE
11118233,Vilvoorde,1800,Harensesteenweg,230,50.9184451,4.4228382,APARTMENT,LOFT,555000,BUY_REGULAR,,215,INSTALLED,1,0,0,1,,,,,2,,AS_NEW
11000833,Elsene,1050,Rue Kerckx,50,50.8309623,4.3762553,APARTMENT,APARTMENT,415000,BUY_REGULAR,,80,USA_INSTALLED,1,0,0,1,,,,,3,,AS_NEW
11074975,Antwerpen Ekeren Mariaburg,2180,Kapelsesteenweg,579,51.2932886,4.4431415,APARTMENT_GROUP,APARTMENT_GROUP,,BUY_REGULAR,,,,,,0,,,,,,,,
11153616,Pepingen,1670,,,,,HOUSE,COUNTRY_COTTAGE,2900000,BUY_REGULAR,7,640,,,0,0,1,,,,2600,4,,AS_NEW
11159666,Oudergem,1160,,,,,APARTMENT,APARTMENT,249000,BUY_REGULAR,,77,,1,0,0,1,17,,,,,0,TO_BE_DONE_UP
10969756,Nieuwenrode,1880,Kerkstraat,3,50.9796032,4.3505284,APARTMENT,APARTMENT,199000,BUY_REGULAR,,65,,1,0,0,1,14,,,,2,0,
10766523,Izegem,8870,Schoolstraat,64,50.9112168,3.2148666,APARTMENT,APARTMENT,280000,BUY_REGULAR,4,130,,,,0,,,,,,,,GOOD
11162806,Evere,1140,Avenue de l'Oud-Kapelleke,3,50.873875,4.4038291,APARTMENT,APARTMENT,165000,BUY_REGULAR,,67,SEMI_EQUIPPED,1,0,0,1,7,,,,,,TO_BE_DONE_UP
11038998,Liberchies,6238,,,,,APARTMENT,APARTMENT,285000,BUY_REGULAR,,100,USA_HYPER_EQUIPPED,1,0,0,1,,,,,2,0,AS_NEW
11155626,DEFTINGE,9570,Strichtstraat,32,50.7954977,3.8665001,HOUSE,HOUSE,240000,BUY_REGULAR,,201,SEMI_EQUIPPED,1,,0,,,,,1145,3,,TO_RENOVATE
11152155,Herentals,2200,Boerenkrijglaan,31,51.173995,4.841743,HOUSE,HOUSE,275000,BUY_REGULAR,,177,SEMI_EQUIPPED,1,,1,1,,1,,172,2,,GOOD
11080168,Erpe-Mere,9420,Oudenaardsesteenweg,694,50.9168569,3.9296648,APARTMENT,DUPLEX,320000,BUY_REGULAR,,142,USA_HYPER_EQUIPPED,1,0,0,1,6,,,,2,0,AS_NEW
11081715,Oostende,8400,Prinses Clementinaplein,40,51.2228827,2.9092352,APARTMENT,APARTMENT,330000,BUY_REGULAR,,84,INSTALLED,1,0,0,,,,,,2,0,AS_NEW
11148806,Elsene,1050,Rue des Drapiers,"2,25",50.8352339,4.3590931,APARTMENT,APARTMENT,1495000,BUY_REGULAR,4,174,USA_HYPER_EQUIPPED,1,,0,1,40,,,,2,0,AS_NEW
11154815,Balen,2490,Holven,92,51.1614678,5.1573304,HOUSE,HOUSE,275000,BUY_REGULAR,,150,INSTALLED,1,,1,,,1,,365,3,,GOOD
11161944,Knokke-Heist,8300,,,,,APARTMENT,DUPLEX,995000,BUY_REGULAR,4,110,HYPER_EQUIPPED,1,,0,1,,,,,2,0,AS_NEW
11091555,Woluwe-Saint-Lambert,1200,Avenue Emile Vandervelde,72,50.8472146,4.4478882,APARTMENT,PENTHOUSE,425000,BUY_REGULAR,,145,INSTALLED,1,0,0,1,3,,,,3,0,GOOD
10916596,Antwerpen,2000,Wapper,21,51.2168314,4.4093467,APARTMENT,DUPLEX,1235000,BUY_REGULAR,4,312,HYPER_EQUIPPED,1,0,0,1,80,,,,2,,AS_NEW
11162993,Brasschaat,2930,Lage Kaart,380/1,51.303868,4.4852356,APARTMENT,APARTMENT,295000,BUY_REGULAR,,,,,,1,1,8,,,,2,,AS_NEW
11157645,Berchem-Sainte-Agathe,1082,,,,,APARTMENT,DUPLEX,199000,BUY_REGULAR,,67,USA_HYPER_EQUIPPED,1,,0,,,,,,2,0,AS_NEW
11140971,Ukkel,1180,Rue du Doyenne,56-58,50.8062376,4.3384171,APARTMENT_GROUP,APARTMENT_GROUP,,BUY_REGULAR,,,,,,0,,,,,,,,
11078582,Leuze-En-Hainaut,7900,Avenue de Loudun,73,50.5879965,3.6177457,HOUSE,HOUSE,195000,BUY_REGULAR,,180,,1,,1,,,,,699,,,GOOD
11154037,Temse,9140,Velle,80,51.1599292,4.2060846,APARTMENT,APARTMENT,389000,BUY_REGULAR,1,121,,,,0,1,27,,,,,,GOOD
11149064,Gent Wondelgem,9032,Evergemsesteenweg,129,51.0955242,3.7150844,APARTMENT,PENTHOUSE,349000,BUY_REGULAR,,92,INSTALLED,1,0,0,1,29,,,,4,0,AS_NEW
11129514,Knokke,8300,Nieuwstraat,2,51.3385872,3.2878624,APARTMENT,APARTMENT,295000,BUY_REGULAR,5,70,INSTALLED,1,,0,,,,,,,,TO_BE_DONE_UP
11151485,BRUXELLES,1120,Rue des Faînes,8,50.895054,4.3938348,HOUSE,HOUSE,525000,BUY_REGULAR,,210,USA_INSTALLED,1,,1,,,1,147,223,2,,
10943087,Wellin,6920,Rue de la Station,"4,3",50.081643,5.1145506,APARTMENT,GROUND_FLOOR,245000,BUY_REGULAR,,124,INSTALLED,1,0,0,1,50,,,,,0,AS_NEW
11151774,Eeklo,9900,Tieltsesteenweg,53,51.1839548,3.5560484,HOUSE,HOUSE,259000,BUY_REGULAR,,150,INSTALLED,1,0,0,1,,,,140,2,0,
11121206,Deurne,2100,Karel van Overmeirelaan,57,51.2293934,4.482167,APARTMENT,APARTMENT,199000,BUY_REGULAR,,84,NOT_INSTALLED,1,,1,1,12,,,,,,
10922044,Leuven,3000,Groot Park,21,50.8558443,4.7765579,APARTMENT,APARTMENT,422180,BUY_REGULAR,,80,HYPER_EQUIPPED,1,0,0,1,6,,,,4,1,AS_NEW
11141470,Bruxelles,1000,Parkdreef,45,50.8665959,4.3449,APARTMENT_GROUP,APARTMENT_GROUP,,BUY_REGULAR,,,,,,0,,,,,,,,
11157667,Antwerpen,2000,Riemstraat,18,51.2135256,4.3928867,HOUSE,HOUSE,599000,BUY_REGULAR,,189,USA_SEMI_EQUIPPED,1,,1,1,6,1,,46,2,,GOOD
10980284,Woluwe-Saint-Lambert,1200,Avenue de Broqueville,107,50.8413586,4.4144935,APARTMENT,APARTMENT,399000,BUY_REGULAR,,129,,1,0,0,1,3,,,,2,0,GOOD
11159147,Lille,2275,Singel,17,51.2683386,4.8672404,APARTMENT,APARTMENT,364000,BUY_REGULAR,,180,USA_HYPER_EQUIPPED,1,0,0,1,12,,,,3,,AS_NEW
11077395,Antwerpen,2020,Camille Huysmanslaan,75,51.1907603,4.3924447,APARTMENT,APARTMENT,420000,BUY_REGULAR,,129,,,,0,1,,1,100,,2,,GOOD
11152122,Ruien (Kluisbergen),9690,Grote Herreweg,Lot 20,50.7670949,3.4766874,HOUSE,HOUSE,295000,BUY_REGULAR,,170,,,0,0,,,,,333,3,0,GOOD
11129479,Westende,8434,Badenlaan,78,51.1676956,2.7775451,APARTMENT,DUPLEX,134000,BUY_REGULAR,,44,,,0,0,1,,,,,2,0,
10968132,Sint-Lambrechts-Woluwe,1200,Allée Christian de Duve,15,50.8530932,4.4289661,APARTMENT_GROUP,APARTMENT_GROUP,,BUY_REGULAR,,,,,,0,,,,,,,,
11142971,Havré,7021,,,,,HOUSE,HOUSE,90000,BUY_REGULAR,11,184,,1,0,0,,,,,0,2,0,TO_RENOVATE
11055940,Tienen,3300,Sint-Genovevaplein,47,50.8290841,4.9908628,APARTMENT,GROUND_FLOOR,279000,BUY_REGULAR,1,116,INSTALLED,1,,0,1,35,1,70,,3,0,GOOD
10953473,Rekkem,8930,,,,,APARTMENT,PENTHOUSE,425000,BUY_REGULAR,,360,HYPER_EQUIPPED,1,0,0,1,40,,,,3,,AS_NEW
11155926,Gent,9000,Opvoedingstraat,101,51.0287784,3.723634,HOUSE,HOUSE,759000,BUY_REGULAR,1,200,,,,0,,,1,172,2650,2,,
11161933,Wondelgem,9032,Zandstraat,47,51.0770998,3.7105434,HOUSE,HOUSE,299000,BUY_REGULAR,,134,,1,0,0,1,20,,,0,2,0,
11156046,Antwerpen,2000,Italiëlei,99,51.2260799,4.4153595,APARTMENT,APARTMENT,325000,BUY_REGULAR,,106,INSTALLED,1,,1,,,,,,2,,JUST_RENOVATED
10981917,Brussel,1130,Oude Haachtsesteenweg,51,50.8947306,4.4335812,APARTMENT,APARTMENT,262609,BUY_REGULAR,,115,HYPER_EQUIPPED,1,0,0,1,7,,,,3,0,AS_NEW
11149474,Bredene,8450,Staessenstraat,4,51.2220618,2.9542024,HOUSE,HOUSE,279000,BUY_REGULAR,1,128,,,,1,1,,,,135,2,,GOOD
10916551,Mechelen,2800,Kardinaal Mercierplein,14,51.0207466,4.4819647,APARTMENT,APARTMENT,747900,BUY_REGULAR,,146,HYPER_EQUIPPED,1,0,0,1,16,,,,3,0,
11149334,Limburg,4830,Avenue Victor David,81,50.6174456,5.9431691,HOUSE,APARTMENT_BLOCK,799000,BUY_REGULAR,,454,INSTALLED,1,0,0,1,,1,6507,6758,4,0,TO_BE_DONE_UP
10678721,AWANS,4340,Rue Chaussée,126,50.6882014,5.4510698,APARTMENT,APARTMENT,275000,BUY_REGULAR,,88,NOT_INSTALLED,1,,0,1,15,,,,4,,
10835608,Kuurne,8520,Hulstsestraat,29,50.8558308,3.2877762,APARTMENT_GROUP,APARTMENT_GROUP,,BUY_REGULAR,,,,,,0,,,,,,,,
11143314,Harelbeke,8530,Visserstraat,57-62,50.828989,3.3053295,APARTMENT,APARTMENT,253000,BUY_REGULAR,7,,,,,0,,,,,,,,GOOD
11149962,Ninove Aspelare,9404,Cyriel Prieëlsstraat,13,50.8436999,3.9568042,HOUSE,MIXED_USE_BUILDING,275000,BUY_REGULAR,,243,INSTALLED,1,,0,1,,1,159,444,3,,
10732506,Blankenberge,8370,de Smet de Naeyerlaan,79,51.3125689,3.1256715,APARTMENT,APARTMENT,185000,BUY_REGULAR,6,60,HYPER_EQUIPPED,1,,0,,,,,,,,AS_NEW
11156065,Antwerpen,2060,Gasstraat,94,51.2247682,4.4256374,HOUSE,TOWN_HOUSE,369000,BUY_REGULAR,,174,SEMI_EQUIPPED,1,,1,1,,,,56,2,,JUST_RENOVATED
11130949,Knokke-Heist,8300,Albertplein,11,51.3550071,3.2984949,APARTMENT,APARTMENT,2100000,BUY_REGULAR,4,126,USA_HYPER_EQUIPPED,1,,0,1,,,,,2,0,AS_NEW
11147915,Zulte,9870,Zaubeekstraat,107,50.9213626,3.4541163,HOUSE,HOUSE,389000,BUY_REGULAR,1,,,,,0,,,,,252,3,,GOOD
11009340,Hoboken,2660,Klaverbladdreef,"4,1",51.161512,4.3559503,APARTMENT,APARTMENT,229000,BUY_REGULAR,,89,USA_HYPER_EQUIPPED,1,0,0,1,4,,,,2,,GOOD
11131097,Etterbeek,1040,de Haerne,100,50.8298136,4.3835606,APARTMENT,PENTHOUSE,450000,BUY_REGULAR,,99,USA_HYPER_EQUIPPED,1,,0,1,7,,,,2,0,AS_NEW
11029187,Mechelen,2800,Frans Halsvest,33,51.0326616,4.4860321,APARTMENT,APARTMENT,245000,BUY_REGULAR,,120,SEMI_EQUIPPED,1,0,0,1,8,,,,2,0,GOOD
11152755,Knokke-Zoute,8300,Zeedijk-Knokke,686,51.3542833,3.293466,APARTMENT,APARTMENT,920000,BUY_REGULAR,3,64,INSTALLED,1,,0,,,,,,,,
11138692,Wakken,8720,Markegemstraat,35,50.9322386,3.3974662,APARTMENT,APARTMENT,329000,BUY_REGULAR,,500,SEMI_EQUIPPED,1,,1,,,,,,2,,GOOD
10886068,Knokke-Zoute,8300,Zeedijk-Het Zoute,682,51.3551061,3.2987017,APARTMENT,APARTMENT,1175000,BUY_REGULAR,9,72,,,,0,1,,,,,,,
11074065,Oostende,8400,,,,,APARTMENT,APARTMENT,269900,BUY_REGULAR,12,104,,,,0,,,,,,,,AS_NEW
11155660,Sint-Niklaas,9100,Hoge Bokstraat,231-233,51.1748863,4.1123272,HOUSE,HOUSE,398500,BUY_REGULAR,16,262,,,,0,1,,,,294,,,TO_BE_DONE_UP
11158858,Aalter,9880,,,,,HOUSE,HOUSE,395000,BUY_REGULAR,8,284,,,,0,,,,,284,,,
10932695,Knokke-Heist,8300,Zeewindstraat,10,51.3556883,3.3032166,APARTMENT,APARTMENT,630000,BUY_REGULAR,1,58,,,,0,1,,,,,,,GOOD
11101138,Herstal,4040,Place Jean Jaurès,32,50.6658918,5.630596,APARTMENT,APARTMENT,165000,BUY_REGULAR,,90,NOT_INSTALLED,1,0,0,1,,,,,2,0,GOOD
11059806,Hasselt,3500,Kanaalpad,7,50.9356239,5.3353309,APARTMENT,APARTMENT,449000,BUY_REGULAR,,107,HYPER_EQUIPPED,1,0,0,1,,,,,2,0,
10054775,RUPELMONDE,9150,,,,,APARTMENT_GROUP,APARTMENT_GROUP,,BUY_REGULAR,,,,,,0,,,,,,,,
11114252,Knokke,8300,,,,,APARTMENT,DUPLEX,895000,BUY_REGULAR,,125,HYPER_EQUIPPED,1,0,0,1,10,,,,2,,AS_NEW
11163253,Namen,5000,,,,,HOUSE,MANSION,295000,BUY_REGULAR,,250,SEMI_EQUIPPED,1,,1,,,,,290,2,,
11152325,Malle,2390,Zonnedauwlaan,26,51.3067393,4.7276955,HOUSE,HOUSE,558000,BUY_REGULAR,1,220,,1,,0,1,12,1,185,399,3,,GOOD
11093866,Kortessem,3720,Oud-Mersenhoven,6,50.8575147,5.3923291,APARTMENT,PENTHOUSE,365000,BUY_REGULAR,,114,,,0,0,1,,,,,2,0,
10956272,Wanfercée-Baulet,6224,Rue Franklin Roosevelt,"4, 5",50.4709376,4.5900185,APARTMENT,APARTMENT,294000,BUY_REGULAR,,113,HYPER_EQUIPPED,1,,1,1,7,,,,2,,
11152648,Kalmthout,2920,Epiceadreef,5,51.3584725,4.4828051,HOUSE,VILLA,595000,BUY_REGULAR,,242,,,,1,,,1,,2048,4,,TO_RENOVATE
11069980,Wommelgem,2160,Welkomstraat,13-19,51.2028431,4.5235618,APARTMENT_GROUP,APARTMENT_GROUP,,BUY_REGULAR,,,,,,0,,,,,,,,
11120226,Brasschaat (Brasschaat),2930,Bredabaan,179,51.2859852,4.4849203,APARTMENT,APARTMENT,295000,BUY_REGULAR,,68,,,0,0,1,,,,,2,0,GOOD
11116035,GENT,9000,Vina Bovypark,40,51.0349006,3.7058647,APARTMENT,APARTMENT,395000,BUY_REGULAR,,104,INSTALLED,1,,0,1,14,,,,2,,GOOD
11161922,Sint-Pieters-Leeuw,1600,Bezemstraat,34,50.8065114,4.2824983,APARTMENT,APARTMENT,269000,BUY_REGULAR,,90,NOT_INSTALLED,1,0,0,1,3,,,,,,TO_RENOVATE
10753189,Ronse,9600,De Biesestraat,7,50.74928,3.60296,APARTMENT,LOFT,229000,BUY_REGULAR,13,112,,1,,0,1,,,,,2,,GOOD
10969887,Libramont-Chevigny,6800,Avenue de Bouillon,41,49.9181446,5.3740906,HOUSE,HOUSE,214000,BUY_REGULAR,,119,,1,,1,,,,,103,2,,TO_BE_DONE_UP
11149363,Liege,4020,Rue Winston Churchill,183,50.6412819,5.6028666,HOUSE,HOUSE,245000,BUY_REGULAR,,115,HYPER_EQUIPPED,1,0,0,1,70,,,197,2,,AS_NEW
11013725,Destelbergen,9070,Koedreef,34,51.0556233,3.8037897,APARTMENT,APARTMENT,299000,BUY_REGULAR,,72,USA_HYPER_EQUIPPED,1,,0,1,14,,,,2,,AS_NEW
11159407,DURBUY,6940,Rue de la Haie Himbe,23,50.3504474,5.4483,HOUSE,VILLA,1100000,BUY_REGULAR,,265,INSTALLED,1,1,1,1,36,1,39,1877,4,,AS_NEW
11036937,Gent,9000,Raymonde de Larochelaan,1,51.0274241,3.696983,APARTMENT,APARTMENT,320000,BUY_REGULAR,4,90,HYPER_EQUIPPED,1,,0,1,11,,,,,,GOOD
10874556,Brasschaat,2930,Vriesedonklei,28,51.2767085,4.4682699,APARTMENT,APARTMENT,675000,BUY_REGULAR,,195,USA_SEMI_EQUIPPED,1,,0,1,29,,,,4,0,AS_NEW
10954427,Mons,7000,Rue Victor Dejardin,5,50.448305,3.961646,APARTMENT,FLAT_STUDIO,130000,BUY_REGULAR,2,33,INSTALLED,1,1,0,,,,,,,0,GOOD
11076717,Bruxelles,1000,Quai des Usines,155,50.8791815,4.3708417,APARTMENT_GROUP,APARTMENT_GROUP,,BUY_REGULAR,,,,,,0,,,,,,,,
10973693,Sint-Niklaas,9100,LAVENDELSTRAAT,,51.1740709,4.1395366,APARTMENT,APARTMENT,180000,BUY_REGULAR,11,84,,,,0,,,,,,,,
11144692,Jambes,5100,Avenue de la Dame,91,50.4518964,4.8747899,APARTMENT,GROUND_FLOOR,303510,BUY_REGULAR,,91,INSTALLED,1,,1,1,15,1,117,,,,
11148788,Bruxelles,1020,Avenue Mutsaard,77,50.9010388,4.3582903,APARTMENT,APARTMENT,199000,BUY_REGULAR,,71,SEMI_EQUIPPED,1,,0,1,7,,,,2,0,TO_RENOVATE
10465432,SINT-DENIJS-WESTREM,9051,Derbystraat,42,51.0232446,3.697362,APARTMENT,APARTMENT,120000,BUY_REGULAR,,67,NOT_INSTALLED,1,,0,,,,,,2,,TO_BE_DONE_UP
11150748,ANDERLECHT,1070,Rue du Bivouac,1,50.8478801,4.3146214,APARTMENT,APARTMENT,184900,BUY_REGULAR,4,65,NOT_INSTALLED,1,0,0,,,,,,2,0,TO_RENOVATE
10887492,Loksbergen,3545,Loksbergenstraat,51,50.9333234,5.0675747,APARTMENT,GROUND_FLOOR,259000,BUY_REGULAR,,95,HYPER_EQUIPPED,1,,0,1,25,,,,3,0,AS_NEW
11148927,Anderlecht,1070,,,,,HOUSE,HOUSE,329000,BUY_REGULAR,,117,INSTALLED,1,0,0,1,4,,,60,2,0,AS_NEW
11146855,IZEGEM,8870,Kortrijksestraat,43,50.9150356,3.2155387,HOUSE,HOUSE,185000,BUY_REGULAR,,134,,,,0,,,1,65,183,2,,GOOD
11140961,Pepingen,1670,Ninoofsesteenweg,201,50.7595475,4.1531679,HOUSE,HOUSE,360000,BUY_REGULAR,,91,SEMI_EQUIPPED,1,0,0,1,,,,1830,4,0,TO_BE_DONE_UP
10759885,Knokke-Heist,8300,,,,,APARTMENT,DUPLEX,2295000,BUY_REGULAR,4,154,HYPER_EQUIPPED,1,,0,1,11,,,,2,0,AS_NEW
11147504,Gent,9000,Bommelstraat,52,51.0328245,3.7280313,HOUSE,HOUSE,298500,BUY_REGULAR,1,112,,,,0,,,,,56,2,,TO_BE_DONE_UP
11147947,Elsene,1050,Chaussée de Waterloo,417,50.8215527,4.3560377,HOUSE,EXCEPTIONAL_PROPERTY,999000,BUY_REGULAR,,434,USA_INSTALLED,1,0,0,1,15,1,35,190,2,0,GOOD
11156795,Assenois,6860,Habaru,33,49.7982049,5.4835454,HOUSE,TOWN_HOUSE,343500,BUY_REGULAR,,160,USA_UNINSTALLED,1,,0,,,1,,0,4,,
10981810,Ingelmunster,8770,Waterstraat,2,50.9180739,3.2520029,APARTMENT,APARTMENT,345000,BUY_REGULAR,8,132,INSTALLED,1,,0,1,31,,,,,,
11160161,Ieper,8900,Basculestraat,13,50.854046,2.8942954,HOUSE,HOUSE,339000,BUY_REGULAR,4,155,,1,,0,1,,,,295,3,,GOOD
11160364,Nijvel,1400,,,,,HOUSE,HOUSE,392000,BUY_REGULAR,,160,HYPER_EQUIPPED,1,0,0,1,,1,145,390,3,0,AS_NEW
11151666,Puurs (Puurs-Sint-Amands),2870,Kerkstraat,10,51.0865651,4.3287724,HOUSE,HOUSE,175000,BUY_REGULAR,,81,,1,0,0,,,,,60,2,0,
11157589,ANDERLECHT,1070,,,,,APARTMENT,APARTMENT,199000,BUY_REGULAR,6,68,USA_SEMI_EQUIPPED,1,0,0,,,1,108,,2,0,TO_RENOVATE
11150619,Elsene,1050,Avenue Louise,160A,50.8286819,4.3630138,APARTMENT,APARTMENT,495000,BUY_REGULAR,,134,INSTALLED,1,0,0,1,12,,,,2,0,GOOD
11152040,Wommelgem,2160,Ternesselei,35,51.2059236,4.5151649,HOUSE,HOUSE,384000,BUY_REGULAR,1,195,,,,0,,,1,200,324,2,,GOOD
11143992,Oudenaarde,9700,Deinzestraat,13-17,50.8517786,3.595366,APARTMENT_GROUP,APARTMENT_GROUP,,BUY_REGULAR,,,,,,0,,,,,,,,
11156979,Uccle,1180,Avenue De La Ferme Rose - Roze Hoevelaan,10,50.8059893,4.3471158,APARTMENT,APARTMENT,400000,BUY_REGULAR,,120,INSTALLED,1,,1,1,10,,,,2,0,GOOD
11146874,FOSSES-LA-VILLE,5070,rue Haut-Vent,46,50.3870233,4.6873714,APARTMENT,APARTMENT,110000,BUY_REGULAR,,101,SEMI_EQUIPPED,1,,0,,,,,,3,,
11156343,NIVELLES,1400,Vieux Chemin de Seneffe,19,50.5873153,4.3136811,APARTMENT,DUPLEX,380000,BUY_REGULAR,7,163,SEMI_EQUIPPED,1,,0,1,6,,,,,0,GOOD
11131776,Knokke-Heist,8300,Burgemeester Frans Desmidtplein,15,51.3468796,3.2886705,APARTMENT,APARTMENT,399500,BUY_REGULAR,1,53,,,,0,,,,,,,,GOOD
11122281,Gent,9000,Meerseniersstraat,18,51.057567,3.7245815,APARTMENT,PENTHOUSE,1495000,BUY_REGULAR,12,209,,,,0,1,25,1,13,,,,
11076640,WERCHTER,3118,Hoogland,91,50.9727141,4.7160071,HOUSE_GROUP,HOUSE_GROUP,,BUY_REGULAR,,,,,,0,,,,,,,,
11152449,GRÂCE-HOLLOGNE,4460,Rond-Point de Blanckart-Surlet,1,50.6327855,5.3965264,APARTMENT,APARTMENT,275000,BUY_REGULAR,,173,SEMI_EQUIPPED,1,,1,1,10,,,,4,,JUST_RENOVATED
11088279,Waver,1300,Rue des Combattants,144,50.7111059,4.5911782,APARTMENT,APARTMENT,310000,BUY_REGULAR,,73,INSTALLED,1,,1,1,4,,,,,,
11031703,LEUVEN,3000,Lepelstraat,87,50.8800899,4.7074722,APARTMENT,APARTMENT,518750,BUY_REGULAR,,125,INSTALLED,1,,0,,,,,,3,,GOOD
11148642,Oostende,8400,Prof. Jozef Vercoulliestraat,23,51.2182751,2.9015267,APARTMENT,APARTMENT,79000,BUY_REGULAR,6,52,,,,0,,,,,,,,TO_RENOVATE
11142770,Gent,9000,Resedastraat,22,51.0619479,3.6983562,HOUSE,HOUSE,279000,BUY_REGULAR,,92,,,0,0,,,,,41,2,0,
11023573,Saint-Gilles,1060,,,,,APARTMENT,TRIPLEX,1495000,BUY_REGULAR,4,254,HYPER_EQUIPPED,1,0,0,1,3,,,,2,0,GOOD
11154400,Etterbeek,1040,,,,,APARTMENT,DUPLEX,225000,BUY_REGULAR,,75,,1,0,0,1,3,,,,2,0,TO_BE_DONE_UP
10972930,Evere,1140,Rue Stroobants,48,50.8789854,4.3924799,APARTMENT,PENTHOUSE,529000,BUY_REGULAR,,127,USA_HYPER_EQUIPPED,1,0,0,1,16,,,,3,0,
11082672,Louvain-La-Neuve,1348,Impasse de Picardie,"3, 500",50.6688215,4.617031,APARTMENT,APARTMENT,149000,BUY_REGULAR,,,USA_SEMI_EQUIPPED,1,,1,,,,,,4,,GOOD
11078212,Niel,2845,Antwerpsestraat,59,51.1086369,4.3300337,APARTMENT,APARTMENT,169000,BUY_REGULAR,10,101,INSTALLED,1,,0,,,,,,,,
10435227,Hasselt,3500,Mechtildus de Lechyplein,1,50.9215166,5.3447405,APARTMENT,APARTMENT,395000,BUY_REGULAR,8,95,INSTALLED,1,,0,,,,,,,,GOOD
11162484,Koksijde,8670,,,,,APARTMENT,APARTMENT,299000,BUY_REGULAR,,80,INSTALLED,1,,1,,,,,,,,GOOD
11163039,BRUSSEGEM,1785,,,,,HOUSE,HOUSE,695000,BUY_REGULAR,,293,SEMI_EQUIPPED,1,,1,1,40,1,,0,4,1,JUST_RENOVATED
11144472,Amonine,6997,Rue de dochamps,30,50.2651995,5.5712726,HOUSE,HOUSE,145000,BUY_REGULAR,,118,,1,0,0,1,,,,500,4,0,
11146098,Liège Grivegnée,4030,Avenue de Péville,164,50.6283039,5.5964199,APARTMENT,APARTMENT,150000,BUY_REGULAR,,74,SEMI_EQUIPPED,1,0,0,1,6,,,,3,0,TO_RENOVATE
10871304,Elsene,1050,Avenue Louise - Louizalaan,304,50.8238494,4.3681903,APARTMENT,APARTMENT,545000,BUY_REGULAR,3,129,USA_HYPER_EQUIPPED,1,1,0,1,4,,,,4,0,GOOD
10949804,Leuven,3000,Maria Theresiastraat,57,50.8783586,4.7117478,APARTMENT,APARTMENT,456500,BUY_REGULAR,,85,INSTALLED,1,,0,1,6,,,,2,0,AS_NEW
11159961,SINT-NIKLAAS,9100,Koningin Fabiolapark,269,51.1541311,4.1573398,APARTMENT,APARTMENT,149000,BUY_REGULAR,,81,SEMI_EQUIPPED,1,,0,1,15,,,,2,,
9878205,Hasselt,3500,Ursulinenhof,4,50.9313047,5.3365647,APARTMENT,APARTMENT,442900,BUY_REGULAR,9,81,,,,0,1,22,,,,,,GOOD
11149909,Destelbergen,9070,Sint-Pietershofstraat,70,51.0599298,3.8032872,APARTMENT,PENTHOUSE,585000,BUY_REGULAR,,102,HYPER_EQUIPPED,1,,0,1,29,,,,3,0,AS_NEW
11141095,Kontich,2550,Pierstraat,226,51.1294161,4.4182683,HOUSE,HOUSE,1285000,BUY_REGULAR,,355,USA_HYPER_EQUIPPED,1,,0,1,,,,4540,4,,GOOD
11152368,Hamme,9220,Polderstraat,28,51.0964383,4.1621266,HOUSE,HOUSE,619000,BUY_REGULAR,,216,INSTALLED,1,,1,,,1,,2442,4,,TO_BE_DONE_UP
11066606,Knokke-Heist,8300,Generaal Lemanpad,12,51.3539012,3.297358,APARTMENT,APARTMENT,1395000,BUY_REGULAR,,93,USA_HYPER_EQUIPPED,1,0,0,1,,1,15,,2,0,GOOD
11151233,Bruxelles,1000,,,,,HOUSE,HOUSE,549000,BUY_REGULAR,,265,INSTALLED,1,0,0,,,,,110,2,0,TO_BE_DONE_UP
11038479,Woluwe-Saint-Lambert,1200,Boulevard de la Woluwe,56,50.8401828,4.4355698,APARTMENT,APARTMENT,385000,BUY_REGULAR,,76,USA_HYPER_EQUIPPED,1,0,0,1,3,,,,3,0,AS_NEW
11032761,Oudenaarde,9700,Remparden,14,50.8401636,3.6117193,APARTMENT,APARTMENT,269000,BUY_REGULAR,7,66,,1,,0,1,9,,,,4,,
9991630,Saint-Gilles,1060,Rue de Suisse,16,50.8325162,4.3538998,APARTMENT,PENTHOUSE,925000,BUY_REGULAR,,197,USA_HYPER_EQUIPPED,1,,1,1,41,,,,2,,JUST_RENOVATED
11155177,Lendelede,8860,,,,,HOUSE,HOUSE,199000,BUY_REGULAR,1,181,,1,,0,,,1,539,630,2,,TO_RENOVATE
11144839,DILSEN,3650,Ter Motten,14,51.0357232,5.7249664,APARTMENT,APARTMENT,315727,BUY_REGULAR,,99,INSTALLED,1,,0,1,12,,,,,,
10759774,Eeklo,9900,Blommekens,69,51.1914402,3.5705551,APARTMENT_GROUP,APARTMENT_GROUP,,BUY_REGULAR,,,,,,0,,,,,,,,
10801411,Kruibeke,9150,Mercatorplein,1,51.1267808,4.2904673,APARTMENT,PENTHOUSE,445000,BUY_REGULAR,1,121,,,,0,,,1,78,,3,,GOOD
11066017,HOBOKEN,2660,Zuidwendelaan,100,51.187126,4.3392418,HOUSE,TOWN_HOUSE,395000,BUY_REGULAR,,150,INSTALLED,1,,0,,,1,325,375,3,,GOOD
10506942,Erembodegem,9320,,,,,APARTMENT_GROUP,APARTMENT_GROUP,,BUY_REGULAR,,,,,,0,,,,,,,,
10878611,Evere,1140,Avenue Henry Dunant,23,50.8636088,4.4124872,APARTMENT,APARTMENT,299000,BUY_REGULAR,,123,HYPER_EQUIPPED,1,0,0,1,7,,,,2,0,TO_BE_DONE_UP
10869107,Liege,4000,Rue Albert Mockel,43,50.6218399,5.5669593,APARTMENT,APARTMENT,399000,BUY_REGULAR,,156,INSTALLED,1,0,0,1,25,,,,2,0,AS_NEW
10971862,Wommelgem,2160,Kerkplaats,21-22,51.2038723,4.5239517,APARTMENT,APARTMENT,399000,BUY_REGULAR,,105,INSTALLED,1,0,0,1,18,,,,2,0,AS_NEW
11145299,Koekelberg,1081,Boulevard Leopold II,226,50.861943,4.334054,APARTMENT,APARTMENT,245000,BUY_REGULAR,,105,,,0,0,,,,,,2,0,
11152385,Kalmthout,2920,Holleweg,94,51.4305246,4.5028947,HOUSE,HOUSE,579000,BUY_REGULAR,,255,INSTALLED,1,,1,1,,1,,1048,4,,AS_NEW
11003820,Etterbeek,1040,Square de Leopoldville,15,50.82801,4.3836584,APARTMENT,GROUND_FLOOR,289000,BUY_REGULAR,,92,HYPER_EQUIPPED,1,,0,,,,,,,0,GOOD
11148095,Elsene,1050,,,,,APARTMENT,APARTMENT,295000,BUY_REGULAR,,90,,,,1,,,,,,,,TO_RENOVATE
11092209,St-Lambrechts-Herk,3500,Abdis de Goorstraat,12,50.89841,5.30741,HOUSE,HOUSE,349741,BUY_REGULAR,,193,,,,0,,,,,330,3,,AS_NEW
11159275,Vosselaar,2350,Kerkstraat,26,51.3135758,4.890386,HOUSE,HOUSE,299000,BUY_REGULAR,,166,INSTALLED,1,,0,,,,,762,4,,TO_RENOVATE
10590296,Knokke-Heist,8300,Zeedijk,501,51.3484796,3.2769162,APARTMENT,APARTMENT,1350000,BUY_REGULAR,12,75,HYPER_EQUIPPED,1,,0,,,,,,2,,AS_NEW
11161176,Antwerpen (2000),2000,Frankrijklei,92,51.2154069,4.4129726,APARTMENT,APARTMENT,269000,BUY_REGULAR,12,101,,1,,0,1,1,,,,,,TO_BE_DONE_UP
11149533,Hoeilaart,1560,,,,,APARTMENT,APARTMENT,325000,BUY_REGULAR,,80,NOT_INSTALLED,1,0,0,1,,,,,2,0,JUST_RENOVATED
11087198,LIÈGE,4020,Quai Mativa,24,50.6272523,5.5796734,APARTMENT,APARTMENT,260000,BUY_REGULAR,,88,NOT_INSTALLED,1,,0,1,8,,,,2,,GOOD
10498380,Bruxelles,1000,,,,,APARTMENT,PENTHOUSE,320000,BUY_REGULAR,,140,INSTALLED,1,0,0,,,,,,2,0,TO_RENOVATE
11144115,Heist-op-den-Berg,2220,Oude Gendarmeriestraat,15,51.0753065,4.7205152,APARTMENT_GROUP,APARTMENT_GROUP,,BUY_REGULAR,,,,,,0,,,,,,,,
11098637,Antwerpen (2018),2018,Helenalei,26,51.2007319,4.4214064,APARTMENT,FLAT_STUDIO,110000,BUY_REGULAR,4,37,,,,0,,,,,,,,
10938739,De Panne,8660,Kunstenaarslaan,12 0202,51.1048221,2.5958592,APARTMENT,APARTMENT,162000,PUBLIC_SALE,,63,,,,0,,,,,,2,,
11161325,Mechelen,2800,Koningin Astridlaan,132,51.0240088,4.468717,APARTMENT,APARTMENT,329056,BUY_REGULAR,4,79,,,,0,1,13,,,,,,
11149929,Gent,9000,Kouter,11-25,51.0499226,3.7238132,APARTMENT,APARTMENT,1595000,BUY_REGULAR,3,153,USA_HYPER_EQUIPPED,1,0,0,1,21,,,,2,0,AS_NEW
10184755,Turnhout,2300,Warandestraat,5,51.3235119,4.9467392,APARTMENT_GROUP,APARTMENT_GROUP,,BUY_REGULAR,,,,,,0,,,,,,,,
11157602,Bruxelles,1020,Laneaustraat,107,50.8751812,4.3411634,APARTMENT,GROUND_FLOOR,210000,BUY_REGULAR,,60,SEMI_EQUIPPED,1,0,0,,,,,,2,0,TO_BE_DONE_UP
11042681,Arlon Heinsch,6700,Avenue du Bois d'Arlon,150,49.6715091,5.788691,APARTMENT,APARTMENT,315000,BUY_REGULAR,,84,SEMI_EQUIPPED,1,0,0,1,70,,,,,0,GOOD
11154799,Westerlo,2260,Oude Zoerlebaan,33,51.09281,4.844786,HOUSE,HOUSE,299000,BUY_REGULAR,,,,,,1,1,,,,577,4,,
10736251,Westende,8434,Portiekenlaan,26,51.1695141,2.7754035,APARTMENT,FLAT_STUDIO,84500,BUY_REGULAR,,27,,,1,0,1,,,,,2,0,
11161964,Willebroek,2830,Guido Gezellestraat,11,51.0640743,4.3589042,HOUSE,HOUSE,275000,BUY_REGULAR,,143,INSTALLED,1,0,0,1,,,,130,2,0,GOOD
10670346,Scherpenheuvel-Zichem Testelt,3272,Rinusveld,14,51.016921,4.9549334,APARTMENT,SERVICE_FLAT,344764,BUY_REGULAR,,91,,,,0,1,46,,,,4,,AS_NEW
10707657,Knokke-Heist,8300,Meerlaan,50,51.3441151,3.2773864,APARTMENT,APARTMENT,975000,BUY_REGULAR,,112,USA_HYPER_EQUIPPED,1,0,0,,,,,,2,0,JUST_RENOVATED
11147026,Kortrijk,8500,Passionistenlaan,21,50.8272235,3.2811994,HOUSE,HOUSE,209000,BUY_REGULAR,1,125,,,,0,1,,,,166,2,,GOOD
11091510,Brugge,8200,Gistelse Steenweg,32,51.2038709,3.2084448,APARTMENT,APARTMENT,244000,BUY_REGULAR,,102,USA_SEMI_EQUIPPED,1,0,0,1,,,,,2,0,GOOD
10817879,Neder-over-Heembeek,1120,Rue Bruyn,105,50.9038447,4.3861531,APARTMENT,APARTMENT,205000,BUY_REGULAR,,86,,1,0,0,1,8,,,,3,0,TO_RESTORE
11159633,Tubeke,1480,,,,,HOUSE,HOUSE,369000,BUY_REGULAR,,200,INSTALLED,1,0,0,1,69,1,250,380,2,0,GOOD
10839172,Knokke-Heist,8300,Lispannelaan,33,51.3441391,3.278727,APARTMENT,APARTMENT,1795000,BUY_REGULAR,13,,,,,0,,,,,,,,AS_NEW
11149174,Rochefort,5580,Rue Jacquet,"7,1",50.1575944,5.2230869,APARTMENT,APARTMENT,189000,BUY_REGULAR,,89,INSTALLED,1,0,0,1,87,,,,2,0,GOOD
11152822,Merelbeke,9820,Koningin Astridlaan,17,50.9621197,3.7520233,HOUSE,HOUSE,449715,BUY_REGULAR,15,230,INSTALLED,1,,0,1,,,,217,2,,GOOD
10964907,Antwerpen (2018),2018,Harmoniestraat,116,51.2004565,4.4089036,APARTMENT,FLAT_STUDIO,149900,BUY_REGULAR,5,50,SEMI_EQUIPPED,1,,0,,,,,,,,TO_BE_DONE_UP
11151576,Mechelen,2800,Stenenmolenstraat,84,51.0113897,4.4818269,HOUSE,HOUSE,220000,BUY_REGULAR,,135,USA_INSTALLED,1,,1,1,,1,,235,2,,TO_RENOVATE
11153809,Roosdaal,1760,,,,,HOUSE,HOUSE,515000,BUY_REGULAR,,217,USA_INSTALLED,1,,1,,,1,,513,4,,JUST_RENOVATED
10938380,Daverdisse Gembes,6929,,,,,HOUSE,EXCEPTIONAL_PROPERTY,430000,BUY_REGULAR,,280,INSTALLED,1,0,0,1,20,1,1014,1671,3,0,AS_NEW
11161389,TISSELT,2830,Blaasveldstraat,24,51.0345717,4.3598253,HOUSE,HOUSE,369000,BUY_REGULAR,,218,SEMI_EQUIPPED,1,,1,,,1,,439,2,,GOOD
10785457,Middelkerke,8434,Badenlaan,102,51.168484,2.7763641,APARTMENT,APARTMENT,180000,BUY_REGULAR,1,59,,,,0,1,4,,,,,,GOOD
10893527,Waregem,8790,Leeuwkestraat,1,50.8812525,3.442244,APARTMENT,APARTMENT,449000,BUY_REGULAR,9,99,INSTALLED,1,,0,1,38,,,,,,GOOD
11145116,Knokke-Heist,8300,Leopoldlaan,126,51.3510707,3.2878653,APARTMENT,APARTMENT,499000,BUY_REGULAR,,96,,,0,0,,,,,,2,0,
11161843,Ravels Weelde,2381,Koning Albertstraat,11,51.4126881,5.0133639,HOUSE,HOUSE,269000,BUY_REGULAR,,155,,1,0,0,,,,,207,3,,GOOD
11142905,Chimay,6460,Rue de la Maladrerie 31,,50.0844529,4.2660214,HOUSE,VILLA,200000,BUY_REGULAR,,152,INSTALLED,1,0,1,,,,,1731,4,,
11154139,LIERDE,9570,Langemunte,53A,50.8126205,3.8480812,HOUSE,MIXED_USE_BUILDING,295000,BUY_REGULAR,,139,INSTALLED,1,,0,,,,,1034,4,,GOOD
10675870,Zeebrugge,8380,Noordhinderstraat,27,51.3322446,3.2029082,APARTMENT_GROUP,APARTMENT_GROUP,,BUY_REGULAR,,,,,,0,,,,,,,,
11096822,Linkebeek,1630,Schaveistraat,24,50.765157,4.3442604,APARTMENT,APARTMENT,225000,BUY_REGULAR,,75,SEMI_EQUIPPED,1,0,0,,,,,,2,0,TO_BE_DONE_UP
11138546,De Haan,8420,Torenhofstraat,2,51.2571575,2.9994248,APARTMENT,APARTMENT,87000,BUY_REGULAR,1,32,,,,0,,,,,,,,GOOD
11061918,Ixelles,1050,Avenue Adolphe Buyl - Adolphe Buyllaan,33,50.8172246,4.3806934,APARTMENT,PENTHOUSE,579000,BUY_REGULAR,,121,USA_INSTALLED,1,,0,1,14,,,,2,0,AS_NEW
11157605,HOBOKEN,2660,Windmolenstraat,48,51.1792708,4.3662464,HOUSE,HOUSE,225000,BUY_REGULAR,,136,INSTALLED,1,,0,,,1,95,190,2,,TO_BE_DONE_UP
11128088,Roeselare,8800,Beversesteenweg,55,50.952018,3.1303301,APARTMENT,GROUND_FLOOR,115000,BUY_REGULAR,1,60,,,,0,,,,,,,,GOOD
11150509,AALST,9300,Pontstraat,32,50.9364487,4.0430635,APARTMENT,APARTMENT,279000,BUY_REGULAR,,126,SEMI_EQUIPPED,1,,0,1,,,,,2,,GOOD
11149763,Deurne (2100),2100,Ravelsbergstraat,7,51.2025813,4.4602407,HOUSE,HOUSE,339000,BUY_REGULAR,14,206,INSTALLED,1,,0,,,,,65,2,,TO_RENOVATE
11159404,DURBUY,6940,Rue de la Haie Himbe,21,50.350504,5.4484754,HOUSE,VILLA,1175000,BUY_REGULAR,,305,INSTALLED,1,1,1,1,40,,,1863,4,,GOOD
11162850,Bruxelles  1,1000,,,,,APARTMENT,APARTMENT,295000,BUY_REGULAR,,60,INSTALLED,1,0,0,1,2,,,,2,,
11149113,Liège Rocourt,4000,Rue de l'Arbre Sainte-Barbe,247,50.6753419,5.5618682,HOUSE,BUNGALOW,354900,BUY_REGULAR,,130,INSTALLED,1,0,0,1,30,1,370,797,4,0,AS_NEW
11146548,Luik,4000,Boulevard de la Sauvenière,56,50.6441469,5.5671924,APARTMENT,FLAT_STUDIO,149000,BUY_REGULAR,,72,INSTALLED,1,,0,,,,,,2,,GOOD
10836008,Jette,1090,Avenue de l'Arbre Ballon,20,50.8931092,4.3233858,APARTMENT,APARTMENT,139000,BUY_REGULAR,,54,NOT_INSTALLED,1,0,0,1,6,,,,,0,TO_BE_DONE_UP
11158669,Wevelgem,8560,Menenstraat,101,50.8066543,3.1747545,HOUSE,HOUSE,149900,BUY_REGULAR,11,192,,,,0,,,,,250,,,TO_RENOVATE
10671623,Scherpenheuvel-Zichem Testelt,3272,Rinusveld,16,51.016921,4.9549334,APARTMENT,SERVICE_FLAT,288773,BUY_REGULAR,,74,,,,0,1,44,,,,4,,AS_NEW
11081073,ENGIS,4480,Rue des Fagnes,6,50.5876654,5.4029291,HOUSE,BUNGALOW,165000,BUY_REGULAR,,100,NOT_INSTALLED,1,,0,1,,,,523,4,,TO_RENOVATE
11152991,Zwijndrecht,2070,Pastoor Coplaan,33,51.2119633,4.332682,APARTMENT,APARTMENT,387840,BUY_REGULAR,8,122,,,,0,,,,,,,,
11140840,Gent Mariakerke,9030,Speistraat,16,51.0856034,3.6659281,HOUSE,HOUSE,429250,BUY_REGULAR,,157,HYPER_EQUIPPED,1,,0,1,14,1,45,160,3,0,
11153627,'s Gravenbrakel,7090,Rue neuve,80,50.6026303,4.1327727,HOUSE,HOUSE,230000,BUY_REGULAR,,146,,1,0,0,1,16,,,130,2,0,TO_BE_DONE_UP
11151608,Mechelen,2800,Hombeeksesteenweg,44,51.0196884,4.4706838,HOUSE,APARTMENT_BLOCK,329000,BUY_REGULAR,,233,SEMI_EQUIPPED,1,,1,1,,1,,230,2,,TO_RENOVATE
10877955,Kraainem,1950,Avenue Reine Astrid,337,50.8437837,4.4685413,APARTMENT,PENTHOUSE,995000,BUY_REGULAR,4,173,USA_HYPER_EQUIPPED,1,0,0,1,14,,,,2,0,AS_NEW
11036391,Knokke-Heist,8300,Leopoldlaan,156,51.352239,3.2880182,APARTMENT,APARTMENT,995000,BUY_REGULAR,1,70,,,,0,,,,,,,,GOOD
11020258,Gent,9000,Brusselsesteenweg,4,51.0408152,3.7410737,APARTMENT,APARTMENT,759000,BUY_REGULAR,14,167,,1,,0,1,20,1,1000,,,,GOOD
11153053,Waregem,8790,Kruiskesstraat,32,50.8833341,3.3938908,HOUSE,HOUSE,219900,BUY_REGULAR,10,157,,1,,0,,,,,511,,,GOOD
11162112,Deinze,9800,Henriette Chaumatstraat,24,50.98164,3.5759499,HOUSE,VILLA,431450,BUY_REGULAR,,132,USA_HYPER_EQUIPPED,1,0,0,1,,,,359,3,0,AS_NEW
11151300,Wemmel,1780,Alboom,20,50.9007089,4.3130478,HOUSE,HOUSE,339000,BUY_REGULAR,1,154,,,,0,,,,,145,2,,TO_RENOVATE
10603940,Brussel,1000,Avenue Du Port - Havenlaan,86,50.8651157,4.3488808,APARTMENT_GROUP,APARTMENT_GROUP,,BUY_REGULAR,,,,,,0,,,,,,,,
11161856,Peer,3990,Harmonieplein,"5,9",51.1333219,5.448936,APARTMENT,APARTMENT,335000,BUY_REGULAR,,161,,,,0,1,,,,,2,,
11115648,Geraardsbergen,9500,Penitentenstraat,40,50.7727413,3.8801389,APARTMENT,APARTMENT,257000,BUY_REGULAR,,97,,,,0,1,9,,,,2,0,AS_NEW
10939752,Lennik,1750,,,,,HOUSE,HOUSE,565847,BUY_REGULAR,16,181,HYPER_EQUIPPED,1,,0,,,,,644,,,GOOD
11146101,Deinze,9800,,,,,APARTMENT,APARTMENT,175000,BUY_REGULAR,,64,INSTALLED,1,0,0,1,7,,,,2,0,GOOD
10907116,Bierbeek,3360,Groot Park,21,50.8558443,4.7765579,APARTMENT,APARTMENT,504280,BUY_REGULAR,,96,HYPER_EQUIPPED,1,0,0,1,6,,,,4,1,AS_NEW
10460627,Luingne,7700,,,,,HOUSE,VILLA,445000,BUY_REGULAR,1,300,,,,0,,,,,3171,4,,
11158943,Wakken,8720,Kapellestraat,46,50.9322282,3.39378,HOUSE,HOUSE,545000,BUY_REGULAR,,214,,1,0,0,,,,,3472,4,0,
11149643,Middelkerke,8434,Koning Ridderdijk,13,51.1710172,2.7750459,APARTMENT,APARTMENT,570000,BUY_REGULAR,,78,HYPER_EQUIPPED,1,1,0,1,1,,,,2,0,GOOD
10689641,Berlaar,2590,Aarschotsebaan,127,51.0835174,4.6652995,APARTMENT,APARTMENT,365000,BUY_REGULAR,,101,INSTALLED,1,,1,1,34,1,32,,2,,
11051992,BLANKENBERGE,8370,Albert Ruzettelaan,187,51.3187527,3.1421149,APARTMENT,APARTMENT,435000,BUY_REGULAR,,78,INSTALLED,1,,0,1,12,,,,2,,
11151802,Westende,8434,Parklaan,5B,51.1701022,2.7791258,APARTMENT,PENTHOUSE,495000,BUY_REGULAR,,85,,,0,0,,,,,,4,0,
10485950,Bilzen,3740,Tweevoetjesweg,4,50.8697924,5.5212659,APARTMENT_GROUP,APARTMENT_GROUP,,BUY_REGULAR,,,,,,0,,,,,,,,
11142805,Bruxelles  2,1020,,,,,HOUSE,VILLA,1150000,BUY_REGULAR,5,450,INSTALLED,1,0,1,,,1,950,1165,4,,
11145883,Heule,8501,Mellestraat,132,50.850133,3.2295068,HOUSE,HOUSE,199000,BUY_REGULAR,13,187,INSTALLED,1,,0,,,1,100,263,3,,
11030079,Heist-op-den-Berg,2220,Molenstraat,9,51.0778267,4.7161892,APARTMENT_GROUP,APARTMENT_GROUP,,BUY_REGULAR,,,,,,0,,,,,,,,
11077124,Deurne (2100),2100,Gitschotellei,324,51.1977023,4.4566652,APARTMENT,APARTMENT,239000,BUY_REGULAR,9,78,HYPER_EQUIPPED,1,,0,1,5,,,,,,
11153141,Herenthout,2270,Bevelse Steenweg,45,51.1342019,4.7232898,HOUSE,VILLA,850000,BUY_REGULAR,,360,HYPER_EQUIPPED,1,0,0,1,,,,10240,4,,GOOD
11144759,Vorst,1190,,,,,HOUSE,HOUSE,990000,BUY_REGULAR,,428,USA_HYPER_EQUIPPED,1,0,0,1,52,1,70,428,2,0,
10976191,Oostende,8400,Koningsstraat,1,51.230601,2.9128523,APARTMENT,PENTHOUSE,389000,BUY_REGULAR,1,95,,,,0,1,56,,,,,,GOOD
11162303,Molenbeek-Saint-Jean,1080,,,,,APARTMENT,PENTHOUSE,1175000,BUY_REGULAR,3,280,HYPER_EQUIPPED,1,0,0,1,122,,,,,0,AS_NEW
11148693,Herzele,9550,Rosalie Daemstraat,16,50.8909886,3.8817543,HOUSE_GROUP,HOUSE_GROUP,,BUY_REGULAR,,,,,,0,,,,,,,,
11112322,Vorst,1190,Rue des Carburants,1,50.8139605,4.3207534,APARTMENT,APARTMENT,259000,BUY_REGULAR,,78,USA_HYPER_EQUIPPED,1,,0,1,,,,,2,,AS_NEW
11142624,Quaregnon,7390,,,,,HOUSE,HOUSE,120000,BUY_REGULAR,,124,,,,1,,,,,0,2,,
11130744,Kontich,2550,Edegemsesteenweg,"2,1eV",51.1407654,4.4468822,APARTMENT,APARTMENT,319000,BUY_REGULAR,,110,HYPER_EQUIPPED,1,,0,1,3,,,,2,,
10588068,Boekhoute,9961,Noordstraat,38,51.2601416,3.7183273,APARTMENT_GROUP,APARTMENT_GROUP,,BUY_REGULAR,,,,,,0,,,,,,,,
11156884,Binche,7130,Rue de la Régence,33,50.414224,4.1660352,APARTMENT,APARTMENT,173568,BUY_REGULAR,,71,,,,0,,,,,,,,AS_NEW
10965369,Halle,1500,Hoek Brusselsesteenweg - Robert Lariellestraat,213,50.7456531,4.2425591,APARTMENT_GROUP,APARTMENT_GROUP,,BUY_REGULAR,,,,,,0,,,,,,,,
11153750,Borgworm,4300,Rue d'oleye,72,50.7012377,5.2683535,APARTMENT,DUPLEX,205000,BUY_REGULAR,,112,USA_INSTALLED,1,0,0,1,6,,,,2,,GOOD
11161951,Knokke-Heist,8300,,,,,APARTMENT,APARTMENT,1175000,BUY_REGULAR,,75,,,0,0,1,,,,,2,0,AS_NEW
11144237,Merchtem,1785,Stationsstraat,83A,50.9560199,4.2266296,APARTMENT,DUPLEX,239000,BUY_REGULAR,,95,,1,,0,1,,,,,2,,AS_NEW
10776992,Lummen,3560,Vandermarckestraat,6,50.9895907,5.1886428,APARTMENT,APARTMENT,328000,BUY_REGULAR,9,100,INSTALLED,1,,0,1,40,,,,,,
10878254,Knokke-Heist,8300,Kustlaan,23-25,51.3534613,3.2932422,APARTMENT,APARTMENT,699000,BUY_REGULAR,,70,HYPER_EQUIPPED,1,1,0,,,,,,2,0,AS_NEW
10987764,Molenbeek-Saint-Jean,1080,Rue de l'intendant,201,50.8638864,4.3356799,APARTMENT,DUPLEX,295000,BUY_REGULAR,,112,HYPER_EQUIPPED,1,0,0,,,,,,2,,AS_NEW
11104637,Oudergem,1160,Boulevard du Triomphe,201,50.8163956,4.3989398,APARTMENT,APARTMENT,521500,BUY_REGULAR,,105,HYPER_EQUIPPED,1,,0,1,8,,,,,0,AS_NEW
11161790,Schaerbeek,1030,Rue de Robiano,8,50.861365,4.3727024,HOUSE,APARTMENT_BLOCK,540000,BUY_REGULAR,,228,,,0,0,,,,,75,2,0,
10725024,Oostende,8400,Torhoutsesteenweg,173,51.2205145,2.9079009,APARTMENT,APARTMENT,179000,BUY_REGULAR,1,122,,,,0,1,7,1,7,,,,GOOD
11087899,Zwijndrecht,2070,,,,,HOUSE,HOUSE,620000,BUY_REGULAR,,440,HYPER_EQUIPPED,1,,1,1,12,1,945,1133,2,,AS_NEW
11002834,Antwerpen (2000),2000,Italiëlei,49,51.2279975,4.4145807,APARTMENT,APARTMENT,179000,BUY_REGULAR,6,,,1,,0,1,3,,,,,,GOOD
11142502,Tubeke,1480,,,,,APARTMENT,APARTMENT,130000,BUY_REGULAR,,50,INSTALLED,1,,1,,,,,,2,,GOOD
11152702,Ekeren,2180,Kloosterstraat,16,51.2801047,4.4183069,HOUSE,MIXED_USE_BUILDING,359000,BUY_REGULAR,,507,SEMI_EQUIPPED,1,,1,,,1,80,391,3,,TO_BE_DONE_UP
11123158,Deurne (Antwerpen),2100,Schotensesteenweg,409,51.2297525,4.4826011,APARTMENT,APARTMENT,225000,BUY_REGULAR,,67,,,0,0,,,,,,2,0,GOOD
11158408,Harelbeke,8530,Zwevegemsestraat,136,50.8235691,3.3232158,HOUSE,HOUSE,229000,BUY_REGULAR,1,136,,1,,0,,,,,731,4,,GOOD
11156006,Antwerpen,2018,Ommeganckstraat,31,51.2175313,4.4248018,APARTMENT,APARTMENT,300000,BUY_REGULAR,,118,SEMI_EQUIPPED,1,,1,1,4,1,,,2,,GOOD
10962755,Tournai Froyennes,7503,,,,,HOUSE,VILLA,550000,BUY_REGULAR,,255,INSTALLED,1,0,0,1,,,,845,4,1,AS_NEW
11078933,Genk,3600,Herenstraat,100,50.9891804,5.5262553,APARTMENT,APARTMENT,248500,BUY_REGULAR,,86,,,0,0,1,12,,,,2,0,GOOD
11146513,Waterloo,1410,,,,,HOUSE,HOUSE,799000,BUY_REGULAR,,260,NOT_INSTALLED,1,0,0,1,,,,1150,4,0,TO_RENOVATE
11149178,Meise,1860,Ossegemstraat,,50.9579306,4.3174189,HOUSE,VILLA,1200000,BUY_REGULAR,,198,HYPER_EQUIPPED,1,,0,1,,1,10505,10707,4,,GOOD
11018502,Etterbeek,1040,,,,,APARTMENT,PENTHOUSE,875000,BUY_REGULAR,,171,USA_HYPER_EQUIPPED,1,0,0,1,25,,,,3,0,JUST_RENOVATED
11159039,Maldegem,9990,Melingstraat,1B,51.204653,3.4463052,HOUSE,HOUSE,489000,BUY_REGULAR,,174,HYPER_EQUIPPED,1,,0,1,,,,210,4,,
11152126,Herentals,2200,Madrigaalstraat,9/201,51.1762886,4.8219671,APARTMENT,APARTMENT,179000,BUY_REGULAR,,91,SEMI_EQUIPPED,1,,1,1,,1,,,3,,GOOD
11145695,Hoboken,2660,Louisalei,1,51.1773595,4.3497327,APARTMENT,APARTMENT,299900,BUY_REGULAR,6,90,HYPER_EQUIPPED,1,,0,,,1,50,,,,GOOD
11146768,Loyers,5101,,,,,HOUSE,HOUSE,419000,BUY_REGULAR,,155,INSTALLED,1,0,0,1,60,,,1428,4,0,AS_NEW
11148498,Sleidinge,9940,Hooiwege,61,51.1416631,3.6749671,HOUSE,HOUSE,385000,BUY_REGULAR,13,187,INSTALLED,1,,0,,,,,650,,,TO_RENOVATE
11158258,COURCELLES,6180,Rue des Hiercheuses,0.2,50.43725,4.3633533,APARTMENT,APARTMENT,288860,BUY_REGULAR,,111,INSTALLED,1,,0,1,,,,,,,
11162021,Zottegem Strijpen,9620,Strijpenplein,10,50.8677644,3.7877384,APARTMENT,APARTMENT,440000,BUY_REGULAR,,130,USA_HYPER_EQUIPPED,1,0,0,1,35,1,450,,2,0,AS_NEW
11156333,Brasschaat,2930,Augustijnslei,60,51.294461,4.4898455,APARTMENT,PENTHOUSE,895000,BUY_REGULAR,,313,INSTALLED,1,,1,1,,,,,2,,GOOD
11077910,Bornem,2880,Breevenstraat,120,51.0949591,4.2386131,APARTMENT,APARTMENT,267000,BUY_REGULAR,,60,HYPER_EQUIPPED,1,0,0,1,26,,,,2,,AS_NEW
11042835,Zottegem,9620,Grensstraat,6,50.872104,3.8126265,APARTMENT,APARTMENT,209000,BUY_REGULAR,3,80,,1,,0,1,10,,,,,,GOOD
11083698,Avelgem,8582,Doorniksesteenweg,369,50.7568488,3.4301409,APARTMENT,APARTMENT,220000,BUY_REGULAR,1,146,,1,,0,,,1,20,,,,GOOD
10944713,Knokke,8300,Koningslaan,234,51.3506522,3.2851973,APARTMENT,APARTMENT,1095000,BUY_REGULAR,13,122,INSTALLED,1,,0,1,35,,,,2,,
11144994,Oud-Turnhout,2360,Neerstraat,"8, 2",51.317257,4.9816069,APARTMENT,APARTMENT,185000,BUY_REGULAR,,111,NOT_INSTALLED,1,,1,,,1,,,2,,GOOD
11144741,Molenbeek-Saint-Jean,1080,,,,,APARTMENT,APARTMENT,249000,BUY_REGULAR,,95,HYPER_EQUIPPED,1,0,0,1,1,,,,2,,
10887972,Jette,1090,,,,,APARTMENT,APARTMENT,269000,BUY_REGULAR,,118,INSTALLED,1,0,0,,,,,,2,0,GOOD
11095548,Sint-Joris,8730,Galgeveld,6 103,51.1241158,3.363189,APARTMENT,APARTMENT,189000,BUY_REGULAR,1,40,,,,0,,,,,,,,GOOD
11082743,Antwerpen,2000,Museumstraat,31,51.2096589,4.3929445,APARTMENT,APARTMENT,739000,BUY_REGULAR,,193,INSTALLED,1,,0,,,,,,2,0,GOOD
11036932,Gent,9000,Raymonde de Larochelaan,1,51.0274241,3.696983,APARTMENT,APARTMENT,390000,BUY_REGULAR,5,96,HYPER_EQUIPPED,1,,0,1,26,,,,,,GOOD
10413606,Herne,1540,Kerkstraat,4,50.7248863,4.0289285,APARTMENT,APARTMENT,309500,BUY_REGULAR,,94,HYPER_EQUIPPED,1,0,0,1,24,,,,3,,AS_NEW
10759869,ARLON,6700,Rue Scheuer,116,49.6887959,5.8065921,APARTMENT,DUPLEX,420000,BUY_REGULAR,,115,INSTALLED,1,,0,1,13,,,,,,GOOD
11068136,Antwerpen (2060),2060,Van Arteveldestraat,46,51.2206847,4.4199571,APARTMENT,APARTMENT,235000,BUY_REGULAR,8,80,,,,0,1,2,,,,,,
11054710,Zottegem,9620,Arthur Scheirisstraat,2,50.8696852,3.8099937,APARTMENT,APARTMENT,375000,BUY_REGULAR,11,125,INSTALLED,1,,0,1,7,,,,2,,GOOD
11084923,Knokke-Heist,8300,Leopoldlaan,135,51.3525573,3.2878348,APARTMENT,APARTMENT,519000,BUY_REGULAR,,75,HYPER_EQUIPPED,1,0,0,,,,,,,0,AS_NEW
11044569,Bruxelles,1000,,,,,APARTMENT,APARTMENT,270000,BUY_REGULAR,,100,SEMI_EQUIPPED,1,0,0,1,4,,,,2,0,TO_RENOVATE
11052733,Schaarbeek,1030,Rue Gaucheret,4,50.8624095,4.3601281,APARTMENT,FLAT_STUDIO,102000,BUY_REGULAR,,36,INSTALLED,1,0,0,1,6,,,,4,0,TO_RENOVATE
10853669,Knokke-Heist,8300,,,,,APARTMENT,APARTMENT,1595000,BUY_REGULAR,4,131,USA_HYPER_EQUIPPED,1,1,0,1,,,,,2,0,AS_NEW
11143099,Beveren-Leie,8791,Grote Heerweg,104,50.8774676,3.3335422,HOUSE,HOUSE,350000,BUY_REGULAR,,236,INSTALLED,1,0,0,,,,,1065,4,0,GOOD
10716421,Menen,8930,Oude Leielaan,2,50.7921839,3.1229972,APARTMENT,APARTMENT,185000,BUY_REGULAR,1,80,,,,0,,,,,,,,TO_BE_DONE_UP
11148568,De Panne,8660,Konijnenweg,2,51.0999315,2.5918818,APARTMENT,APARTMENT,375000,BUY_REGULAR,9,162,,,,0,,,,,,,,
11055540,Wilrijk,2610,Klaproosstraat,78,51.1693566,4.4108233,APARTMENT,SERVICE_FLAT,545000,BUY_REGULAR,,165,INSTALLED,1,0,0,1,50,,,,2,,GOOD
11055589,Brussel,1000,Rue du Damier,17,50.8528335,4.3580307,APARTMENT,APARTMENT,349000,BUY_REGULAR,,112,USA_HYPER_EQUIPPED,1,0,0,1,6,,,,,,
10992652,Sint-Pieters-Leeuw,1600,Galgstraat,40,50.7867156,4.2675414,APARTMENT,APARTMENT,259000,BUY_REGULAR,9,75,INSTALLED,1,,0,,,,,,,,
11088273,Waver,1300,Rue des Combattants,144,50.7111059,4.5911782,APARTMENT,GROUND_FLOOR,445000,BUY_REGULAR,,92,USA_SEMI_EQUIPPED,1,,1,1,18,1,,,2,,
10967342,NAMUR,5000,,,,,APARTMENT,APARTMENT,179000,BUY_REGULAR,,47,INSTALLED,1,,0,,,,,,,,GOOD
11161567,Bredene,8450,Noordzeestraat,25,51.2443158,2.9656685,APARTMENT,APARTMENT,115000,BUY_REGULAR,4,45,INSTALLED,1,,0,,,,,,,,TO_BE_DONE_UP
11159795,Stabroek,2940,Lepelstraat,59,51.3502941,4.3974632,HOUSE,HOUSE,239000,BUY_REGULAR,,135,HYPER_EQUIPPED,1,,1,,,1,44,130,,,TO_BE_DONE_UP
11144100,Elsene,1050,Chaussée de Wavre,21,50.8371449,4.3632719,APARTMENT,FLAT_STUDIO,150000,BUY_REGULAR,,35,INSTALLED,1,0,0,,,,,,2,0,GOOD
11156823,Anderlecht,1070,Rue de la Petite Ile,20,50.831669,4.3153713,APARTMENT,APARTMENT,248000,BUY_REGULAR,,66,USA_INSTALLED,1,,0,1,11,,,,4,0,
11140791,Heusden-Zolder,3550,Michel Scheperslaan,153,51.0238848,5.3392701,HOUSE,HOUSE,269000,BUY_REGULAR,,166,HYPER_EQUIPPED,1,,0,,,,,1811,4,,GOOD
11155217,Oud-Heverlee Haasrode,3053,Weertsedreef,25,50.8058892,4.6615784,HOUSE,HOUSE,474000,BUY_REGULAR,,275,INSTALLED,1,,0,1,25,1,1000,1170,3,0,TO_RENOVATE
9876477,Merchtem,1785,Wolvertemsesteenweg 27-29,,50.9599455,4.2401501,APARTMENT_GROUP,APARTMENT_GROUP,,BUY_REGULAR,,,,,,0,,,,,,,,
11158448,Rumst,2840,Nieuwstraat,133,51.0791658,4.3996383,APARTMENT,APARTMENT,324000,BUY_REGULAR,7,,HYPER_EQUIPPED,1,,0,,,,,,,,
11152860,NIJLEN,2560,Molenstraat,10-12,51.1577171,4.6640783,HOUSE,HOUSE,299000,BUY_REGULAR,,220,,,,1,,,1,,720,3,,TO_RENOVATE
10718987,Aubange,6790,RUE CLAIE,,49.5737512,5.7804549,HOUSE,HOUSE,465000,BUY_REGULAR,,172,INSTALLED,1,0,0,1,23,1,70,70,,0,
10808114,Lanquesaint,7800,,,,,HOUSE,HOUSE,719886,BUY_REGULAR,14,234,HYPER_EQUIPPED,1,,0,,,,,3568,,,GOOD
11076685,Oudenburg,8460,Vaartstraat,1,51.1918529,3.0043138,APARTMENT,APARTMENT,273425,BUY_REGULAR,1,85,,,,0,1,14,,,,,,GOOD
10935434,Gembloux,5030,,,,,APARTMENT,APARTMENT,200000,BUY_REGULAR,,84,SEMI_EQUIPPED,1,,1,1,5,,,,4,,TO_BE_DONE_UP
11069809,Knokke-Heist,8300,Zeedijk-Het Zoute,842,51.359227,3.315606,APARTMENT,APARTMENT,1395000,BUY_REGULAR,1,97,,,,0,1,,,,,,,GOOD
10346585,Woluwe-Saint-Lambert,1200,Avenue Paul Hymans,112,50.8465498,4.4332386,APARTMENT,APARTMENT,250000,BUY_REGULAR,,80,INSTALLED,1,0,0,1,18,,,,2,0,AS_NEW
11084672,Sint-Pieters-Leeuw,1600,George Wittouckstraat,222,50.7875369,4.2712492,APARTMENT,APARTMENT,215000,BUY_REGULAR,,80,INSTALLED,1,,0,1,,,,,,,
11162679,Tenerife,01000,Piedra Hincada Guia de isora,1,,,HOUSE,VILLA,1474900,BUY_REGULAR,1,200,,,,0,,,,,17197,4,1,GOOD
11017434,Kieldrecht,9130,Molenstraat,75,51.2876136,4.1682173,APARTMENT,APARTMENT,175000,BUY_REGULAR,,100,SEMI_EQUIPPED,1,,0,1,6,,,,4,0,TO_BE_DONE_UP
11134768,Berchem,2600,fruithoflaan,29,51.1814123,4.436353,APARTMENT,APARTMENT,259000,BUY_REGULAR,,112,INSTALLED,1,,1,1,19,,,,2,,GOOD
11125338,Sint-Niklaas,9100,Grote Markt,67,51.1650688,4.1404493,APARTMENT,APARTMENT,430000,BUY_REGULAR,12,141,,,,0,1,,,,,,,
11159038,Antwerpen,2018,Van Schoonbekestraat,20,51.204028,4.4093904,APARTMENT,APARTMENT,385000,BUY_REGULAR,,90,,,0,0,1,2,,,,2,,JUST_RENOVATED
11142277,Schaerbeek,1030,,,,,APARTMENT,GROUND_FLOOR,195000,BUY_REGULAR,4,70,,,0,0,,,1,43,,2,0,TO_BE_DONE_UP
10827768,DENDERMONDE,9200,Stationsstraat,32,51.0241549,4.1014293,APARTMENT,APARTMENT,225000,BUY_REGULAR,,82,INSTALLED,1,,0,1,40,,,,2,,JUST_RENOVATED
11121721,Wanze,4520,Rue Val de Mehaigne,10,50.5325491,5.2187553,APARTMENT,APARTMENT,219000,BUY_REGULAR,,106,INSTALLED,1,,1,1,5,,,,2,,GOOD
11153914,Jemeppe-Sur-Meuse,4101,rue Bois de Mont,280,50.6186432,5.487783,HOUSE,HOUSE,189000,BUY_REGULAR,10,113,INSTALLED,1,0,0,1,10,1,50,100,2,0,GOOD
10971170,Elsene,1050,Rue du Printemps,45,50.8204056,4.3888027,APARTMENT,APARTMENT,780000,BUY_REGULAR,,154,USA_HYPER_EQUIPPED,1,0,0,1,17,,,,2,0,AS_NEW
10316124,Knokke-Heist,8300,,,,,APARTMENT,DUPLEX,4200000,BUY_REGULAR,,246,HYPER_EQUIPPED,1,0,0,1,10,,,,4,0,AS_NEW
11153640,Desselgem (Waregem),8792,Grote Heerweg,305,50.8867904,3.3488611,APARTMENT,GROUND_FLOOR,230000,BUY_REGULAR,,85,,,0,0,1,15,1,96,,2,0,GOOD
11148034,HUY,4500,,,,,APARTMENT,APARTMENT,235000,BUY_REGULAR,,74,INSTALLED,1,,0,1,13,,,,,,
11082324,Berchem,2600,De Roest d'Alkemadelaan,"9, C14",51.1834,4.43283,APARTMENT,APARTMENT,220000,BUY_REGULAR,,85,SEMI_EQUIPPED,1,,1,1,11,,,,,,GOOD
11084138,Deinze,9800,Tolpoortstraat,41,50.9813272,3.5292559,APARTMENT,APARTMENT,550000,BUY_REGULAR,11,130,INSTALLED,1,,0,1,26,,,,,,GOOD
11154351,MALONNE,5020,Fond de Malonne,136,50.4372428,4.7951765,HOUSE,APARTMENT_BLOCK,259000,BUY_REGULAR,,400,,,1,1,,,1,650,1149,2,,TO_RENOVATE
11030444,Knokke-Zoute,8300,Ieperstraat,2,51.3531347,3.2928802,APARTMENT,APARTMENT,815000,BUY_REGULAR,12,76,HYPER_EQUIPPED,1,,0,,,,,,2,,AS_NEW
10556121,Schaarbeek,1030,Allee des Freesias,5,50.8649665,4.3913846,APARTMENT,APARTMENT,297000,BUY_REGULAR,,90,USA_INSTALLED,1,0,0,1,20,,,,2,0,AS_NEW
11032667,Temse,9140,Antwerpse Steenweg,15,51.1128792,4.1766805,APARTMENT,GROUND_FLOOR,169000,BUY_REGULAR,,55,SEMI_EQUIPPED,1,,0,1,10,,,,2,0,JUST_RENOVATED
11062984,Leuven,3000,Tervuursevest,15,50.868733,4.697385,APARTMENT,APARTMENT,248000,BUY_REGULAR,6,35,,1,,0,1,6,,,,,,AS_NEW
11149958,Glabbeek Bunsbeek,3380,Vissenakensesteenweg,16,50.8417619,4.9389169,HOUSE,HOUSE,485000,BUY_REGULAR,,184,,,0,0,,,,,3370,3,,AS_NEW
11052679,Elsene,1050,Rue du Trone,103,50.83708,4.3696222,APARTMENT,APARTMENT,295000,BUY_REGULAR,,96,USA_HYPER_EQUIPPED,1,0,0,,,,,,2,0,AS_NEW
11142719,Leuven,3000,Vaartkom,7,50.8878465,4.7017126,APARTMENT,FLAT_STUDIO,335000,BUY_REGULAR,,70,INSTALLED,1,1,0,,,,,,,0,AS_NEW
11154906,Oud-Turnhout,2360,Neerstraat,61,51.3148708,4.9840514,HOUSE_GROUP,HOUSE_GROUP,,BUY_REGULAR,,,,,,0,,,,,,,,
11156029,Borgerhout,2140,Kortrijkstraat,68,51.2220191,4.4404601,HOUSE,TOWN_HOUSE,239000,BUY_REGULAR,,90,SEMI_EQUIPPED,1,,1,1,9,,,43,2,,GOOD
11153368,Estaimpuis,7730,,,,,HOUSE,HOUSE,235000,BUY_REGULAR,,,INSTALLED,1,0,0,1,50,1,471,756,2,0,GOOD
11120250,Antwerpen,2000,Ledeganckkaai,21,51.2063373,4.3817558,APARTMENT,APARTMENT,325000,BUY_REGULAR,,52,HYPER_EQUIPPED,1,0,0,1,,,,,2,0,
11063405,Nieuwpoort,8620,,,,,APARTMENT,APARTMENT,595000,BUY_REGULAR,10,120,INSTALLED,1,,0,1,15,,,,,,
11134859,WILLEBROEK,2830,Louis de Naeyerplein,4A,51.0618314,4.3613843,APARTMENT,APARTMENT,259000,BUY_REGULAR,,80,SEMI_EQUIPPED,1,,0,,,,,,2,,JUST_RENOVATED
11159047,Blaasveld,2830,Mechelsesteenweg,286,51.0509079,4.3725808,APARTMENT,APARTMENT,297164,BUY_REGULAR,,7819,HYPER_EQUIPPED,1,,0,1,20,,,,4,,
11149776,Oostende,8400,Rietstraat,10,51.2188231,2.9109782,HOUSE,HOUSE,725000,BUY_REGULAR,9,467,,,,0,,,,,0,,,TO_BE_DONE_UP
11106525,Eeklo,9900,Molenstraat,105,51.1875755,3.5598427,APARTMENT_GROUP,APARTMENT_GROUP,,BUY_REGULAR,,,,,,0,,,,,,,,
11154141,LIERDE,9570,Langemunte,53A,50.8126205,3.8480812,HOUSE,HOUSE,295000,BUY_REGULAR,,139,INSTALLED,1,,0,,,,,1034,4,,GOOD
11146296,Gent,9000,Brugsesteenweg,200-202,51.0652335,3.690419,APARTMENT,APARTMENT,419000,BUY_REGULAR,,140,HYPER_EQUIPPED,1,,0,1,14,,,,2,0,AS_NEW
11101189,Gent,9040,Grondwetlaan,10,51.0662719,3.7531496,APARTMENT,APARTMENT,295000,BUY_REGULAR,,104,,,0,0,,,,,,2,,
11040344,Woluwe-Saint-Lambert,1200,Boulevard de la Woluwe,56,50.8401828,4.4355698,APARTMENT_GROUP,APARTMENT_GROUP,,BUY_REGULAR,,,,,,0,,,,,,,,
11145961,Herselt (Ramsel),2230,Stationsstraat,82,51.0309572,4.8212337,HOUSE,HOUSE,430000,BUY_REGULAR,,281,,,0,0,1,,,,1000,4,0,
11161183,Ronse,9600,Monseigneur Beylsstraat,60,50.7417651,3.6212424,HOUSE,HOUSE,282000,BUY_REGULAR,8,137,HYPER_EQUIPPED,1,,0,,,,,220,,,GOOD
11158398,Leopoldsburg,3970,Maarschalk Fochstraat,23 bus 5,51.1166003,5.2616464,APARTMENT,APARTMENT,160000,BUY_REGULAR,,88,SEMI_EQUIPPED,1,,1,,,,,,2,,GOOD
11142671,Jette,1090,Jean-Joseph Crocqlaan,6,50.8851402,4.3294583,APARTMENT,APARTMENT,159000,BUY_REGULAR,,56,SEMI_EQUIPPED,1,,1,1,,,,,2,,TO_BE_DONE_UP
11160458,De Pinte,9840,Heirweg,8B,50.9745939,3.6431586,HOUSE,VILLA,765000,BUY_REGULAR,,241,USA_HYPER_EQUIPPED,1,0,0,,,,,2671,4,0,AS_NEW
11078934,Genk,3600,Herenstraat,100,50.9891804,5.5262553,APARTMENT,APARTMENT,304300,BUY_REGULAR,,110,,,0,0,1,6,,,,2,0,GOOD
11114618,ENGIS,4480,Rue Chèravoie,"7, E",50.5873686,5.402117,APARTMENT,APARTMENT,275000,BUY_REGULAR,,128,SEMI_EQUIPPED,1,,1,1,9,,,,3,,
11159044,Blaasveld,2830,Mechelsesteenweg,286,51.0509079,4.3725808,APARTMENT,APARTMENT,295191,BUY_REGULAR,,81,,,,0,1,19,,,,4,,
10820010,Hasselt,3500,Maastrichtersteenweg,225,50.9273089,5.3605229,APARTMENT,APARTMENT,249000,BUY_REGULAR,,,HYPER_EQUIPPED,1,,0,1,7,,,,,0,
10907129,Bierbeek,3360,Groot Park,21,50.8558443,4.7765579,APARTMENT,DUPLEX,612860,BUY_REGULAR,,122,HYPER_EQUIPPED,1,0,0,1,6,,,,4,1,AS_NEW
10699813,BLANKENBERGE,8370,Franchommelaan,102,51.3138197,3.1199111,APARTMENT,APARTMENT,395000,BUY_REGULAR,,67,INSTALLED,1,1,0,1,,,,,,,GOOD
11150361,REBECQ,1430,rue du Montgras,12,50.6653969,4.1308278,APARTMENT,APARTMENT,179000,BUY_REGULAR,7,70,INSTALLED,1,0,0,,,,,,2,0,GOOD
11148359,Berchem (2600),2600,Grote steenweg,200,51.1939191,4.4207655,APARTMENT,APARTMENT,249000,BUY_REGULAR,10,76,,1,,0,1,4,,,,,,
11039784,SINT-JANS-MOLENBEEK,1080,Square Edmond Machtens,1,50.851832,4.3124576,APARTMENT,APARTMENT,239000,BUY_REGULAR,,106,INSTALLED,1,,0,1,12,,,,,,TO_BE_DONE_UP
11145044,Liège,4000,Rue Des Urbanistes,1,50.641248,5.5666716,APARTMENT,APARTMENT,215000,BUY_REGULAR,,,,1,,0,1,6,,,,,0,GOOD
11142752,Wuustwezel,2990,Bredabaan,916,51.3533197,4.5463974,APARTMENT,DUPLEX,299000,BUY_REGULAR,,185,INSTALLED,1,0,0,1,40,,,,2,0,AS_NEW
9649200,Bruxelles,1020,Rue Emile Delva,112,50.8805885,4.3420763,APARTMENT_GROUP,APARTMENT_GROUP,,BUY_REGULAR,,,,,,0,,,,,,,,
11153134,Vorst,1190,Chaussée de Bruxelles,313,50.8223466,4.3325934,APARTMENT,APARTMENT,269000,BUY_REGULAR,,90,NOT_INSTALLED,1,,0,1,7,,,,2,0,TO_RENOVATE
11077303,Antwerpen,2018,Prins Albertlei,26,51.1979985,4.4111932,APARTMENT,APARTMENT,615000,BUY_REGULAR,,178,USA_HYPER_EQUIPPED,1,,0,1,10,,,,,,AS_NEW
9281813,Bornem,2880,Sint-Amandsesteenweg,107,51.090593,4.2288369,APARTMENT,APARTMENT,195000,BUY_REGULAR,,62,INSTALLED,1,,1,1,6,,,,4,,
10550935,Marche-en-Famenne,6900,Rue du Luxembourg,94,50.2205462,5.3462541,APARTMENT,APARTMENT,270983,BUY_REGULAR,,99,,,0,0,1,10,,,,,,AS_NEW
11144511,BERCHEM-SAINTE-AGATHE,1082,Place Docteur Schweitzer,32,50.8640039,4.2970437,APARTMENT,APARTMENT,279000,BUY_REGULAR,,100,NOT_INSTALLED,1,,0,,,,,,,,GOOD
11154491,Woluwe-Saint-Lambert,1200,Avenue du Prince Héritier,126,50.8441566,4.410168,APARTMENT,APARTMENT,225000,BUY_REGULAR,,60,,1,,1,,,,,,3,,
10788645,Bergen,7000,Chemin de la Procession,294,50.4614426,3.9694848,APARTMENT,APARTMENT,266000,BUY_REGULAR,,107,HYPER_EQUIPPED,1,0,0,1,20,,,,3,,AS_NEW
10541515,Luik,4000,,,,,APARTMENT_GROUP,APARTMENT_GROUP,,BUY_REGULAR,,,,,,0,,,,,,,,
10756852,Eeklo,9900,Blommekens,69,51.1914402,3.5705551,APARTMENT,APARTMENT,254750,BUY_REGULAR,20,87,INSTALLED,1,,0,1,16,1,39,,,,GOOD
11098873,Houthulst,8650,Poelkapellestraat,3,50.9769281,2.9460705,APARTMENT,APARTMENT,227525,BUY_REGULAR,10,131,INSTALLED,1,,0,,,,,,,,
10878806,Tienen Kumtich,3300,Spoorwegstraat,19,50.8171891,4.8859942,APARTMENT_GROUP,APARTMENT_GROUP,,BUY_REGULAR,,,,,,0,,,,,,,,
11100394,Knokke-Heist,8300,Engelsestraat,39,51.3450884,3.2614683,APARTMENT,APARTMENT,1595000,BUY_REGULAR,15,228,HYPER_EQUIPPED,1,,0,1,17,,,,2,,
11151944,Beerse,2340,Schransdriesstraat,55,51.3228034,4.8337256,APARTMENT,APARTMENT,1195000,BUY_REGULAR,13,530,SEMI_EQUIPPED,1,,1,1,,1,,,4,,GOOD
11008698,Lubbeek,3210,Bollenberg,",zn",50.8785592,4.8235591,APARTMENT_GROUP,APARTMENT_GROUP,,BUY_REGULAR,,,,,,0,,,,,,,,
11104799,Borgerhout,2140,Turnhoutsebaan,322,51.2139485,4.4416665,APARTMENT,APARTMENT,295000,BUY_REGULAR,9,121,,,,0,,,,,,,,
11143869,Mechelen,2800,Arendonckstraat,74,51.0361216,4.4790419,HOUSE,HOUSE,235000,BUY_REGULAR,,152,INSTALLED,1,0,0,1,8,,,80,2,,TO_BE_DONE_UP
11148173,Merksem,2170,Zusters van onze lieve vrouwstraat,3,51.2413493,4.4371051,APARTMENT,APARTMENT,145000,BUY_REGULAR,5,35,INSTALLED,1,,0,1,3,,,,,,
11145323,Stekene,9190,Dorpsstraat,113,51.2021331,4.0374895,APARTMENT,APARTMENT,199500,BUY_REGULAR,,53,HYPER_EQUIPPED,1,,1,1,5,,,,2,,
11148681,Kortrijk,8500,Aalbeeksesteenweg,48,50.8221546,3.2583534,APARTMENT,APARTMENT,199000,BUY_REGULAR,,48,HYPER_EQUIPPED,1,0,0,1,14,,,,2,0,AS_NEW
11153210,Lede,9340,Nieuwstraat,20,50.9654903,3.9806274,APARTMENT,APARTMENT,339000,BUY_REGULAR,,93,SEMI_EQUIPPED,1,,0,1,9,,,,,,
11052826,TEMSE,9140,Vijfhuizenstraat,14,51.1269662,4.2399277,HOUSE,HOUSE,649000,BUY_REGULAR,,280,INSTALLED,1,,0,1,,,,1156,4,,GOOD
11155949,Gent,9000,Rooigemlaan,2,51.0542501,3.6979146,APARTMENT,APARTMENT,675000,BUY_REGULAR,,219,INSTALLED,1,,0,,,,,,,,GOOD
11147376,Deinze,9800,Nobelstraat,8,50.9905972,3.5209227,HOUSE,HOUSE,249000,BUY_REGULAR,,110,,,,1,1,,,,0,,,
11157746,Jambes,5100,"Rue de Sedent, B.2.3.6",,50.4453303,4.8749873,APARTMENT,APARTMENT,340000,BUY_REGULAR,,119,HYPER_EQUIPPED,1,,0,1,10,,,,2,,AS_NEW
11149070,La Louvière Haine-Saint-Paul,7100,Rue Emile Tilmant,19,50.4762452,4.2174019,HOUSE,HOUSE,189000,BUY_REGULAR,,133,INSTALLED,1,,0,1,,,,210,2,0,GOOD
11159017,Woluwe-Saint-Pierre,1150,,,,,APARTMENT,PENTHOUSE,645000,BUY_REGULAR,,132,HYPER_EQUIPPED,1,0,0,1,62,,,,3,0,GOOD
11160413,Schaarbeek,1030,Max Roosstraat,45,50.8752052,4.3762384,APARTMENT,APARTMENT,225000,BUY_REGULAR,,111,SEMI_EQUIPPED,1,,1,1,4,,,,2,,GOOD
11155339,Zwijndrecht,2070,Statiestraat,118,51.2147966,4.3300424,APARTMENT,APARTMENT,319500,BUY_REGULAR,9,80,,1,,0,1,11,,,,,,
11138219,Knokke-Heist,8300,Elizabetlaan,141,51.3472023,3.2853196,APARTMENT_GROUP,APARTMENT_GROUP,,BUY_REGULAR,,,,,,0,,,,,,,,
10425043,Etalle Sainte-Marie-sur-Semois,6740,Rue de la Gare,,49.6747417,5.563416,APARTMENT_GROUP,APARTMENT_GROUP,,BUY_REGULAR,,,,,,0,,,,,,,,
10461560,RONSE,9600,Elzelestraat,75,50.7461447,3.6073072,APARTMENT_GROUP,APARTMENT_GROUP,,BUY_REGULAR,,,,,,0,,,,,,,,
11149621,Anderlecht,1070,Gounodlaan,62,50.830228,4.3013545,APARTMENT,APARTMENT,245000,BUY_REGULAR,4,75,,,,0,,,,,,,,GOOD
11159843,Waterloo,1410,A proximité de Joli-Bois,.,50.70069,4.40213,APARTMENT,APARTMENT,290000,BUY_REGULAR,,80,INSTALLED,1,0,0,1,6,,,,2,,GOOD
11145167,DEURNE (ANTWERPEN),2100,Dascottelei,51,51.2030097,4.4669417,APARTMENT,APARTMENT,219000,BUY_REGULAR,,90,SEMI_EQUIPPED,1,,0,1,5,,,,3,,GOOD
10430826,Antwerpen,2000,Ellermanstraat,61,51.2301643,4.4170893,APARTMENT,FLAT_STUDIO,127500,BUY_REGULAR,,30,USA_INSTALLED,1,1,0,1,6,,,,4,,GOOD
11161326,Mechelen,2800,,,,,APARTMENT,APARTMENT,548911,BUY_REGULAR,5,125,,,,0,1,28,,,,,,
11012694,Eigenbrakel,1420,Rue Sainte-Anne - Rue du Serment,1,50.6831016,4.3747366,APARTMENT_GROUP,APARTMENT_GROUP,,BUY_REGULAR,,,,,,0,,,,,,,,
11163260,Aalst Moorsel,9310,Kruisabeel,13,50.9707275,4.0830625,HOUSE,VILLA,429000,BUY_REGULAR,,344,,1,,0,1,,,,1459,4,,
10912990,Uccle,1180,avenue Winston Churchill,55,50.8120984,4.3515222,APARTMENT,APARTMENT,725000,BUY_REGULAR,7,167,INSTALLED,1,0,0,1,12,,,,2,0,
11141868,Duinbergen,8301,,,,,APARTMENT,APARTMENT,139000,BUY_REGULAR,6,43,INSTALLED,1,,0,1,8,,,,,,
11142501,Tubeke,1480,,,,,HOUSE,HOUSE,350000,BUY_REGULAR,,320,INSTALLED,1,,1,1,,1,114,206,2,,GOOD
11150458,Saint-Gilles,1060,,,,,APARTMENT,APARTMENT,495000,BUY_REGULAR,,150,,,0,0,1,6,,,,,0,TO_RENOVATE
11153293,Jette,1090,Rue Leon Theodor,96,50.8756959,4.3272313,APARTMENT,APARTMENT,365000,BUY_REGULAR,,108,USA_HYPER_EQUIPPED,1,0,0,1,24,,,,2,0,AS_NEW
11150179,MECHELEN,2800,Arsenaalstraat,43,51.0202389,4.4850556,APARTMENT,APARTMENT,268000,BUY_REGULAR,,63,INSTALLED,1,,0,1,10,,,,2,,GOOD
11159647,Virton,6760,Avenue Bouvier,34,49.5661364,5.5277797,HOUSE,HOUSE,270000,BUY_REGULAR,,208,SEMI_EQUIPPED,1,,0,,,,,210,3,,TO_BE_DONE_UP
11154599,SERAING,4100,rue de Rotheux,262,50.580234,5.5029479,APARTMENT,APARTMENT,199000,BUY_REGULAR,11,100,INSTALLED,1,0,0,,,,,,3,0,GOOD
11148629,Hoevenen,2940,Populierenlaan,53,51.3119397,4.4046552,HOUSE,HOUSE,369000,BUY_REGULAR,13,162,INSTALLED,1,,0,,,1,180,180,,,
10798997,Oostende,8400,Albert I-Promenade,65A,51.2301404,2.9101418,APARTMENT,APARTMENT,499000,BUY_REGULAR,9,100,,1,,0,,,,,,,,TO_BE_DONE_UP
11156676,Vilvoorde,1800,Streekbaan,188,50.9126696,4.3723369,HOUSE,HOUSE,378000,BUY_REGULAR,,110,NOT_INSTALLED,1,0,0,1,3,1,94,169,3,,TO_RENOVATE
11063565,Ukkel,1180,Avenue Beau-Séjour,2-6,50.8095449,4.3690692,APARTMENT,APARTMENT,381000,BUY_REGULAR,,68,USA_HYPER_EQUIPPED,1,0,0,1,5,,,,2,0,AS_NEW
11134862,Knokke-Heist,8300,Zeedijk,801,51.3399263,3.2296555,APARTMENT,APARTMENT,2095000,BUY_REGULAR,14,97,HYPER_EQUIPPED,1,,0,,,,,,2,,
11129251,BRUSSEL,1000,Boulevard Poincaré,71,50.8412782,4.3395613,APARTMENT,APARTMENT,325000,BUY_REGULAR,,200,NOT_INSTALLED,1,,0,,,,,,2,,TO_RENOVATE
10981384,Brakel,9660,Herreweg,2,50.7993435,3.7590665,APARTMENT,APARTMENT,299000,BUY_REGULAR,8,86,INSTALLED,1,,0,1,10,,,,,,GOOD
11136707,Bruxelles,1000,,,,,APARTMENT,LOFT,650000,BUY_REGULAR,,160,USA_HYPER_EQUIPPED,1,0,0,,,,,,2,0,AS_NEW
11149729,Roeselare,8800,Begoniastraat,9,50.9391129,3.1387969,APARTMENT,APARTMENT,137000,BUY_REGULAR,2,,,,,0,,,,,,,,GOOD
11148687,Jette,1090,,,,,APARTMENT,APARTMENT,195000,BUY_REGULAR,,,,1,,1,1,2,,,,2,,TO_RENOVATE
11137844,BRUXELLES,1020,Avenue du Forum,11,50.8994252,4.3534847,APARTMENT,APARTMENT,199000,BUY_REGULAR,,95,INSTALLED,1,,0,1,,,,,2,0,TO_BE_DONE_UP
11144782,LOKEREN,9160,Vredegerechtstraat,23,51.1123818,3.9823993,APARTMENT,APARTMENT,168000,BUY_REGULAR,,83,SEMI_EQUIPPED,1,,0,,,,,,2,,GOOD
11154521,Blankenberge,8370,Waterkasteelstraat,8,51.3115247,3.1216732,APARTMENT,APARTMENT,299000,BUY_REGULAR,,83,,1,0,0,,,,,,2,0,
11160093,Ukkel,1180,Rue de la Pêcherie,70,50.7937654,4.3595127,HOUSE,HOUSE,690000,BUY_REGULAR,,240,INSTALLED,1,,1,1,20,1,60,145,2,,GOOD
11157768,Antoing,7640,,,,,HOUSE,HOUSE,100000,BUY_REGULAR,,125,INSTALLED,1,0,0,,,1,29,0,2,,
10410612,Gent,9000,Raymonde de Larochelaan,1,51.0290225,3.6926174,APARTMENT,APARTMENT,365000,BUY_REGULAR,10,101,INSTALLED,1,,0,1,13,,,,,,GOOD
11009255,Antwerpen,2000,Oude Beurs,58,51.2214796,4.4021454,APARTMENT,APARTMENT,425000,BUY_REGULAR,,117,HYPER_EQUIPPED,1,0,0,,,,,,,,AS_NEW
11158395,Leopoldsburg,3970,Maarschalk Fochstraat,23 BUS 4,51.1165428,5.261277,APARTMENT,APARTMENT,170000,BUY_REGULAR,,95,SEMI_EQUIPPED,1,,1,1,,,,,2,,GOOD
11159868,Edegem,2650,Ida Mortelmansstraat,26,51.1708453,4.4350469,APARTMENT,FLAT_STUDIO,140092,BUY_REGULAR,1,29,INSTALLED,1,,0,,,1,800,,2,0,AS_NEW
11127467,Uccle,1180,Avenue Zeecrabbe,30,50.805875,4.3563783,APARTMENT,APARTMENT,750000,BUY_REGULAR,,190,HYPER_EQUIPPED,1,0,1,1,10,,,,3,,GOOD
11102954,Astene,9800,Kapellestraat,98,50.9817215,3.5485845,APARTMENT,APARTMENT,420000,BUY_REGULAR,10,93,INSTALLED,1,,0,,,,,,,,
11149522,Antwerpen,2000,Italiëlei,209,51.2216914,4.4168131,APARTMENT,APARTMENT,769500,BUY_REGULAR,,162,HYPER_EQUIPPED,1,0,0,1,16,,,,2,0,AS_NEW
11124748,Dilbeek Itterbeek,1701,Ninoofsesteenweg,555,50.8424442,4.2447424,APARTMENT,APARTMENT,425000,BUY_REGULAR,,187,USA_INSTALLED,1,,0,1,60,1,130,,4,,GOOD
11156762,Herent,3020,Vaaltweg,4,50.9001239,4.685671,HOUSE,VILLA,745000,BUY_REGULAR,,246,SEMI_EQUIPPED,1,0,0,1,,,,1530,4,0,TO_RENOVATE
10960590,Mechelen,2800,Leuvensesteenweg,164,51.016192,4.4978875,APARTMENT,GROUND_FLOOR,245000,BUY_REGULAR,,90,INSTALLED,1,,0,1,30,,,,2,0,
9995481,Ganshoren,1083,Mail,1,50.8732241,4.3002626,APARTMENT,APARTMENT,215000,BUY_REGULAR,,,SEMI_EQUIPPED,1,,0,1,,,,,,0,TO_BE_DONE_UP
11153345,Wetteren,9230,Gijzenzelestraat,42 - 48,50.978693,3.8389673,HOUSE,HOUSE,376032,BUY_REGULAR,,126,INSTALLED,1,0,0,1,13,1,70,142,2,0,AS_NEW
11133610,ANTWERPEN 2050,2050,Leo J. Krynlaan,27,51.2169107,4.3643328,APARTMENT,PENTHOUSE,285000,BUY_REGULAR,,73,HYPER_EQUIPPED,1,,1,1,11,,,,,,
11162113,Deinze,9800,Henriette Chaumatstraat,20,50.9814722,3.5760684,HOUSE,VILLA,423400,BUY_REGULAR,,132,USA_HYPER_EQUIPPED,1,0,0,1,,,,227,3,0,AS_NEW
11157633,Antwerpen,2000,Britselei,38,51.2101877,4.4055519,APARTMENT,APARTMENT,555000,BUY_REGULAR,,134,HYPER_EQUIPPED,1,,1,1,,,,,2,,JUST_RENOVATED
11143377,Tongeren,3700,Sint-Jansstraat,2,50.7786536,5.4637889,APARTMENT,APARTMENT,142500,BUY_REGULAR,6,65,INSTALLED,1,,0,,,,,,,,GOOD
11162915,Taintignies,7618,Rue de Wattimez,4,50.5516616,3.3509008,HOUSE,FARMHOUSE,325000,BUY_REGULAR,,119,SEMI_EQUIPPED,1,,1,,,,,5557,,,
11142517,NODEBAIS,1320,,,,,HOUSE,HOUSE,543000,BUY_REGULAR,,181,INSTALLED,1,,1,1,40,1,887,887,4,,
10255478,Anderlecht,1070,Place des Tulipes,3-5,50.8181875,4.2625732,APARTMENT_GROUP,APARTMENT_GROUP,,BUY_REGULAR,,,,,,0,,,,,,,,
11154538,Elsene,1050,,,,,HOUSE,HOUSE,769000,BUY_REGULAR,,220,INSTALLED,1,0,0,1,16,1,80,210,2,,
11141490,Bruxelles,1000,Parkdreef,45,50.8665959,4.3449,APARTMENT_GROUP,APARTMENT_GROUP,,BUY_REGULAR,,,,,,0,,,,,,,,
11030188,Bellegem,8510,,,,,APARTMENT,APARTMENT,249000,BUY_REGULAR,1,127,,1,,0,,,,,,,,GOOD
11160173,AUDERGHEM,1160,Rue Georges Huygens,46,50.8106027,4.4404355,HOUSE,HOUSE,545000,BUY_REGULAR,,165,,1,,0,1,10,1,190,280,,,
11156236,Merksem,2170,Laarsebaan,"1, 8",51.2468353,4.4320762,APARTMENT,APARTMENT,250000,BUY_REGULAR,,141,INSTALLED,1,,1,1,,,,,3,,TO_BE_DONE_UP
11159815,SCHAERBEEK,1030,,,,,APARTMENT,APARTMENT,340000,BUY_REGULAR,,100,INSTALLED,1,,0,,,,,,2,,TO_BE_DONE_UP
11152830,KONINGSHOOIKT,2500,Liersebaan,34,51.0994539,4.6074211,HOUSE,HOUSE,265000,BUY_REGULAR,,124,SEMI_EQUIPPED,1,,1,,,1,317,0,2,,TO_BE_DONE_UP
11162189,Knokke-Heist,8300,,,,,APARTMENT,APARTMENT,675000,BUY_REGULAR,,90,HYPER_EQUIPPED,1,0,0,1,,,,,2,0,JUST_RENOVATED
10357571,Eernegem,8480,Stationsstraat,25 B,51.1294295,3.0247358,APARTMENT,APARTMENT,282384,BUY_REGULAR,2,114,,,,0,,,,,,,,GOOD
11150317,Calonne,7642,Chemin du Mont Bonnet,6,50.5839334,3.4292751,HOUSE,HOUSE,249000,BUY_REGULAR,,144,,1,,1,1,34,1,350,750,3,,AS_NEW
11089155,Chaumont-Gistoux,1325,,,,,APARTMENT_GROUP,APARTMENT_GROUP,,BUY_REGULAR,,,,,,0,,,,,,,,
11158742,Otegem,8553,Ingooigemstraat,26,50.8087484,3.4277272,HOUSE,MIXED_USE_BUILDING,265000,BUY_REGULAR,16,247,,1,,0,1,,,,453,4,,
11158288,WASMUEL,7390,Sentier de Saint-Ghislain,20,50.4453627,3.8408347,HOUSE,HOUSE,228000,BUY_REGULAR,,187,SEMI_EQUIPPED,1,,1,1,25,,,1705,3,,GOOD
11151266,Sint-Niklaas,9100,Mercatorstraat,43,51.1697554,4.1459691,HOUSE,HOUSE,425000,BUY_REGULAR,1,381,,,,0,,,,,150,2,,TO_RENOVATE
11154473,BURCHT,2070,Verbindingstraat,134,51.2038936,4.3372335,HOUSE,HOUSE,330000,BUY_REGULAR,,148,USA_SEMI_EQUIPPED,1,,1,,,1,,447,3,,TO_BE_DONE_UP
10981993,Woluwe-Saint-Lambert,1200,Avenue Gilbert Mullie,18,50.8498081,4.4308017,APARTMENT,APARTMENT,425000,BUY_REGULAR,,98,HYPER_EQUIPPED,1,0,0,1,16,,,,,0,AS_NEW
11158007,Antwerpen 5,2050,Fromintinstraat,3,51.2305801,4.3907591,APARTMENT_GROUP,APARTMENT_GROUP,,BUY_REGULAR,,,,,,0,,,,,,,,
11014622,Evere,1140,Rue Stroobants,48,50.8789854,4.3924799,APARTMENT,APARTMENT,399000,BUY_REGULAR,,85,,,0,0,1,6,,,,2,,AS_NEW
11156073,Borgerhout,2140,Luitenant Lippenslaan,45,51.20883,4.4482865,APARTMENT,APARTMENT,190000,BUY_REGULAR,,94,,,,1,1,6,,,,,,
10437960,Anderlecht,1070,Route de Lennik,277,50.8195132,4.2863533,APARTMENT,APARTMENT,199000,BUY_REGULAR,,60,HYPER_EQUIPPED,1,0,0,1,3,,,,2,0,AS_NEW
10757513,Kraainem,1950,Avenue Reine Astrid,337,50.8437837,4.4685413,APARTMENT,PENTHOUSE,995000,BUY_REGULAR,4,173,USA_HYPER_EQUIPPED,1,0,0,1,14,,,,2,0,AS_NEW
11148900,Kalmthout,2920,Achterbroeksteenweg,22,51.3940234,4.4765572,HOUSE,HOUSE,510000,BUY_REGULAR,,169,,,0,0,1,,,,250,2,,AS_NEW
11128597,Neupré,4120,Rue Marcel Marion,"4,21",50.5407108,5.491515,APARTMENT,APARTMENT,279000,BUY_REGULAR,,127,INSTALLED,1,1,0,,,,,,2,0,GOOD
11060147,Laeken,1020,avenue Mutsaard,73,50.9002246,4.358453,APARTMENT,APARTMENT,169000,BUY_REGULAR,,65,INSTALLED,1,0,0,1,12,,,,2,,GOOD
10114523,Izegem,8870,Nieuwstraat,2,50.9181541,3.2134637,APARTMENT,APARTMENT,150000,BUY_REGULAR,9,,INSTALLED,1,,0,1,2,,,,,,AS_NEW
10891420,Tervuren,3080,Brusselsesteenweg,106,50.823293,4.5060298,APARTMENT,PENTHOUSE,849000,BUY_REGULAR,,113,USA_HYPER_EQUIPPED,1,0,0,1,61,,,,4,0,AS_NEW
10482935,Aalst,9300,Volksverheffingstraat,1 B,50.9395078,4.0214055,APARTMENT,APARTMENT,280000,BUY_REGULAR,,160,INSTALLED,1,,1,1,10,,,,3,,GOOD
10834338,PUURS-SINT-AMANDS,2890,Jan Van Droogenbroeckstraat,8,51.0563504,4.2036701,APARTMENT_GROUP,APARTMENT_GROUP,,BUY_REGULAR,,,,,,0,,,,,,,,
9838046,Vichte,8570,Beukenhofstraat,71,50.8339332,3.3918088,APARTMENT_GROUP,APARTMENT_GROUP,,BUY_REGULAR,,,,,,0,,,,,,,,
11149067,Sint Denijs Westrem,9051,Derbystraat,126,51.0235853,3.6949472,APARTMENT,SERVICE_FLAT,165000,BUY_REGULAR,,93,HYPER_EQUIPPED,1,0,0,1,11,,,,2,1,GOOD
11150469,Hasselt,3500,Sint-Lambrechts-Herkstraat,86,50.9067079,5.3057855,HOUSE,COUNTRY_COTTAGE,399900,BUY_REGULAR,,322,,,0,0,1,,,,842,4,0,
11116594,De Haan,8420,Prinses Astridlaan,6,51.2774146,3.0378853,APARTMENT,APARTMENT,475000,BUY_REGULAR,1,81,,,,0,,,,,,,,GOOD
11155488,Kortrijk,8500,Izegemsestraat,236,50.8424515,3.2571154,HOUSE,HOUSE,235000,BUY_REGULAR,8,160,,1,,0,,,1,100,314,,,TO_RENOVATE
11049283,LOKEREN,9160,Koning Albertlaan,11,51.1030017,4.0000797,APARTMENT,APARTMENT,139000,BUY_REGULAR,,80,,,,0,,,,,,2,,GOOD
11152096,Olen,2250,Welvaartstraat,41,51.1801404,4.8981833,HOUSE,HOUSE,499000,BUY_REGULAR,,241,INSTALLED,1,,1,1,,1,,1820,3,,GOOD
11142220,SINAAI,9112,,,,,APARTMENT,APARTMENT,434500,BUY_REGULAR,,160,INSTALLED,1,,1,1,13,1,26,,2,,AS_NEW
11086763,Ukkel,1180,Chaussée de Waterloo,1126,50.7967595,4.3748709,APARTMENT,APARTMENT,299000,BUY_REGULAR,,85,INSTALLED,1,0,0,1,2,,,,3,,GOOD
11148887,Grobbendonk,2280,Capuynestraat,3,51.1645687,4.7572659,HOUSE,HOUSE,234000,BUY_REGULAR,,100,,1,,0,,,,,332,3,,TO_BE_DONE_UP
11151513,GELRODE,3200,Pastoor Dergentstraat,99,50.9645256,4.8008072,APARTMENT,APARTMENT,337900,BUY_REGULAR,,101,HYPER_EQUIPPED,1,,1,1,8,,,,4,,
11149367,Leuven,3000,Eikstraat,12,50.8786477,4.7024105,APARTMENT,KOT,215000,BUY_REGULAR,,16,,,1,0,1,,,,,2,0,AS_NEW
11153571,Haacht,3150,Stationsstraat,80,50.9755876,4.630736,APARTMENT,PENTHOUSE,599000,BUY_REGULAR,,132,,,0,0,1,27,,,,,,AS_NEW
11061386,La Louvière,7100,Rue des Croix du Feu,9,50.4790706,4.2023599,APARTMENT,APARTMENT,149000,BUY_REGULAR,,105,INSTALLED,1,0,0,1,3,,,,3,0,TO_RENOVATE
10840926,MOLENBEEK-SAINT-JEAN,1080,Rue des Fuchsias,13,50.8601507,4.318858,APARTMENT,APARTMENT,179000,BUY_REGULAR,,55,SEMI_EQUIPPED,1,,1,1,5,,,,2,,
11148916,Merchtem,1785,Vesten,38A,50.9583106,4.2292839,APARTMENT,APARTMENT,285000,BUY_REGULAR,,92,INSTALLED,1,0,0,1,7,,,,2,0,GOOD
10465431,SINT-DENIJS-WESTREM,9051,Derbystraat,40,51.0232446,3.697362,APARTMENT,APARTMENT,125000,BUY_REGULAR,,70,NOT_INSTALLED,1,,0,,,,,,2,,TO_BE_DONE_UP
11160855,Sirault,7332,,,,,HOUSE,HOUSE,360000,BUY_REGULAR,,129,INSTALLED,1,,0,1,30,1,,1671,4,0,
11145376,Forêt,4870,,,,,APARTMENT,APARTMENT,250000,BUY_REGULAR,,84,INSTALLED,1,,1,1,3,,,,4,,
11157642,Stekene,9190,Bormtestraat,179,51.1983314,4.0519456,HOUSE,HOUSE,549000,BUY_REGULAR,,220,,,0,0,,,1,200,386,3,0,GOOD
11162176,Waterloo,1410,Clos de Bérine,33,50.6916817,4.400597,APARTMENT,APARTMENT,395000,BUY_REGULAR,,142,,,,0,1,44,,,,2,,GOOD
9375778,Brussels City,1000,Quai de Willebroeck,,50.8623387,4.3521206,APARTMENT_GROUP,APARTMENT_GROUP,,BUY_REGULAR,,,,,,0,,,,,,,,
10722594,Gerpinnes,6280,Rue André Paganetti,"3,C",50.3399659,4.4932711,APARTMENT,APARTMENT,296000,BUY_REGULAR,,130,HYPER_EQUIPPED,1,0,0,1,,,,,,0,AS_NEW
11155097,Edingen,7850,Rue du Viaduc,87,50.6979019,4.0426862,APARTMENT,GROUND_FLOOR,270000,BUY_REGULAR,,600,,,0,0,1,,1,80,,,0,
11158834,Mont-sur-Marchienne,6032,,,,,HOUSE,HOUSE,499000,BUY_REGULAR,,320,SEMI_EQUIPPED,1,,1,1,50,1,3908,4000,4,0,TO_BE_DONE_UP
11161630,Turnhout,2300,Kasteelloop,28,51.3168203,4.9434178,APARTMENT,APARTMENT,232900,BUY_REGULAR,,65,INSTALLED,1,,1,1,17,,,,2,,
11023191,WESTMALLE,2390,Antwerpsesteenweg,157,51.2974072,4.7015251,HOUSE,HOUSE,265000,BUY_REGULAR,,199,,1,,1,,,,,314,3,,TO_RENOVATE
10749966,Gent,9000,Brusselsesteenweg,4,51.0408152,3.7410737,APARTMENT,APARTMENT,364500,BUY_REGULAR,10,78,,,,0,1,27,,,,,,GOOD
10835469,Ieper,8900,Onze-Lieve-Vrouwestraat,16,50.8484204,2.8844471,APARTMENT,APARTMENT,342500,BUY_REGULAR,10,104,,,,0,1,17,,,,,,
11141833,Ruddervoorde,8020,Baliebrugstraat,35,51.0724245,3.1691429,HOUSE,HOUSE,569000,BUY_REGULAR,1,256,,,,1,1,,,,984,4,,GOOD
9842602,Waregem,8790,Baanstknokstraat,3,50.8914266,3.4181391,APARTMENT_GROUP,APARTMENT_GROUP,,BUY_REGULAR,,,,,,0,,,,,,,,
10922994,Oosteeklo,9968,Ertveldesteenweg,28,51.1915457,3.6919144,APARTMENT,APARTMENT,275000,BUY_REGULAR,,86,INSTALLED,1,0,0,1,7,1,,,,0,AS_NEW
